"Anno","comune","Autovetture.circolanti.con.standard.di.emissioni.inferiori.alla.classe.Euro.4","Bambini.presi.in.carico.dai.servizi.comunali.per.linfanzia","Bassa.intensit.lavorativa.delle.famiglie.anagrafiche","Consumo.di.suolo","Contribuenti.IRPEF.con.reddito.complessivo.inferiore.a.10.000.euro","Densit.delle.unit.locali","Diplomati.25.64.anni.iscritti.in.anagrafe","Dispersione.di.rete.di.acqua.potabile","Divari.nel.reddito.al.lordo.delle.imposte","Donne.e.rappresentanza.politica.a.livello.locale...Consigli.comunali","Donne.negli.organi.decisionali....Giunte.comunali","Et.media","Et.media.amministratori.locali","Et.media.consiglieri.comunali","Famiglie.anagrafiche.con.componenti.0.14.anni","Famiglie.anagrafiche.con.componenti.di.85.anni.e.pi","Famiglie.anagrafiche.con.reddito.lordo.equivalente.inferiore.allimporto.dellassegno.sociale","Famiglie.anagrafiche.monoreddito.con.bambini.di.et.inferiore.a.6.anni","Famiglie.anagrafiche.unipersonali.di.85.anni.e.pi","Giovani","Indice.di.attrazione","Indice.di.autocontenimento","Indice.di.lesivit.degli.incidenti.stradali","Indice.di.mortalit.degli.incidenti.stradali","Indice.di.vecchiaia","Indice.dipendenza.anziani","Indice.dipendenza.strutturale","Iscritti.in.anagrafe.di.20.64.anni.occupati.nel.mese.di.ottobre","Iscritti.in.anagrafe.occupati.non.stabili.nel.mese.di.ottobre","Laureati.30.34.anni.iscritti.in.anagrafe","Musei..gallerie..siti.archeologici.e.monumenti.","Partecipazione.elettorale...Primo.turno.elezioni.comunali","Popolazione.residente","Popolazione.straniera.residente","Raccolta.differenziata.rifiuti.urbani","Reddito.lordo.pro.capite","Specializzazione.produttiva.nei.settori.ad.alta.tecnologia","Tasso.di.imprenditorialit","Tasso.di.incidentalit.stradale","Tasso.di.mortalit","Tasso.di.natalit","Tasso.migratorio.totale","Trasformazioni.da.lavoro.non.stabile.a.stabile","Visitatori.di.musei..gallerie..siti.archeologici.e.monumenti.","long","lat"
"Anno_2014","AGRA",37.4,0,41.23,9.03427193891452,41.99,7.15,66.32,19.9454041205161,3.27,16.67,33.33,48.76,63.33,55.33,15.05,8.06,40.32,5.91,2.69,44,18.47,26.56,141.06992860353,1.32631303032978,337.14,51.08,66.23,41.23,9.05,29.63,14.3026318017464,65.2717932114099,386,54,73.53,9904.45,0,49.35,0,12.99,23.38,-5.19,30,0.809824264249725,8.46,46.02
"Anno_2014","ALBIZZATE",38.08,3.51,12.26,23.7721798955744,20.99,88.35,57.99,35.3600843495139,12.79,27.27,20,44.69,49.8,55.27,21.38,7.59,7.32,2.38,4.54,26.44,29.86,24.85,160,6.67,161.89,35.11,56.8,66.87,10.07,31.23,3.18581448476652,71.3513149805272,5349,401,72.45,16838.23,0.61,58.14,2.8,9.91,8.79,0.93,27.5,0,8.802844,45.7209114
"Anno_2014","ANGERA",40.61,18.25,17.21,18.9807037333042,25.27,26.63,62.85,38.9432179136029,8.17,36.36,40,47.14,42.8,43.55,18.52,8.03,13.59,2.78,4.86,31.7,32.12,37.49,114.29,0,212.27,43.62,64.17,62.8,13.73,37.04,11.5960118298135,73.3,5653,589,61.66,16128.16,6.7,78.64,1.24,9.37,6.36,1.06,15.5,226.201028668572,8.5813265,45.7735988
"Anno_2014","ARCISATE",38.11,14.51,29.01,22.8648252682518,28.89,48.57,50.22,45.1723265890369,4.82,30,40,43.43,48.8,41.7,23.51,5.66,22.2,4.17,3.14,41.18,23.94,35.29,112.5,6.25,140.45,30.95,52.99,49.57,9.07,21.86,12.5900494365155,66.79,9967,620,67.28,11606.46,1.61,53.09,1.61,8.36,9.07,7.45,24.81,14.3049599664504,8.8594086,45.860249
"Anno_2014","ARSAGO SEPRIO",36.25,39.69,11.14,30.0743418671707,19.79,34.93,51.38,22.7160159824821,9.2,27.27,20,43.57,48,43.82,23.4,4.65,8.54,3.18,2.71,25.12,28.68,27.15,125,0,138.14,29.9,51.55,68.79,9.08,22.49,4.1418198772003,67.08,4953,332,74.72,15438.58,0.53,68.8,2.44,7.92,7.1,11.37,24.48,3.26416254348754,8.7359732,45.6893366
"Anno_2014","AZZATE",37.23,6.32,13.1,23.125053251459,21.43,91.21,66.75,35.5411287647326,14.03,14.29,25,43.64,52.5,48.86,22.22,7.13,9.87,2.89,3.84,29.84,32.25,25.3,123.53,0,138.3,33.01,56.87,67.11,8.21,33.33,5.30867270157159,71.3465249330723,4656,311,72.22,17807.27,0.44,80.73,3.66,7.97,5.38,7.32,30.57,7.83966602070428,8.798926,45.7775012
"Anno_2014","AZZIO",47.52,0,16.81,14.2537684818332,25.86,22.1,53.01,23.239531481003,8.77,40,0,43.17,49,37.7,22.42,4.85,12.73,2.73,3.64,32.38,30.66,25.77,129.905720219357,0,123.44,29.64,53.66,62.55,11.61,23.68,16.1941233212914,75.15,795,67,69,13998.69,3.61,50.81,0,11.15,6.2,-24.78,13.33,151.468343098244,8.7072542,45.8867461
"Anno_2014","BARASSO",36.33,0,14.53,21.1979790167644,18.81,32.63,68.86,39.2331220083325,18.43,33.33,50,48.17,50,47.44,18.77,8.77,10.41,2.19,4.66,31.75,35.55,15.56,100,0,216.98,45.95,67.13,64.48,8.32,50,15.0109761572384,72.6621438761166,1664,130,68.18,20877.91,0.4,71.32,2.4,13.78,4.79,3.6,18.64,250.812762183493,8.7569186,45.8400911
"Anno_2014","BARDELLO",40.53,0,11.94,21.407663897709,21.42,38.96,55.32,41.9752137463773,11.48,42.86,0,43.59,61.67,47.43,28.02,5.96,8.86,2.42,3.22,31.31,33.79,20.88,200,0,137.4,34.99,60.46,69.3,8.84,22.22,7.28437052436205,78.35,1580,134,67.33,15168.07,1.05,58.15,0.64,9.58,10.22,18.53,21.67,0,8.6981446,45.8348116
"Anno_2014","BEDERO VALCUVIA",42.43,4.08,28.57,13.6534319179651,28.64,18.72,60.6,24.5536658461247,5.11,50,33.33,43.06,50.67,46.9,21.74,4.68,22.07,4.01,3.34,38.54,20.95,22.4,147.551017272733,0,122.22,26.59,48.35,53.98,11.32,27.27,18.4223711592561,70.68,667,58,46.36,12925.21,0.78,67.06,0,4.47,14.9,-22.35,17.39,5.82417750823006,8.7942706,45.9114218
"Anno_2014","BESANO",39.01,0,41.69,18.5771412627354,36.84,24.47,46,33.1084411427624,3.55,22.22,25,43.66,59.75,56.22,23.74,5.43,34.99,4.39,2.86,50.51,11.41,25.86,100,0,141.4,31.24,53.33,40.59,9.59,12.32,19.2465606529583,61.6882689595285,2582,79,56.37,9477.68,0.65,30.98,0.39,10.84,7.36,3.49,25.49,36.7910245995,8.8885435,45.8882638
"Anno_2014","BESNATE",35.79,13.17,8.88,25.987331017995,19.5,56.57,57.98,30.3683118944259,14.23,27.27,40,44.41,51.6,54.27,23.59,6.48,6.14,2.65,3.35,28.59,26.24,29.26,114.29,0,149.32,34.38,57.41,69.94,7.62,26.16,3.20172802383789,70.88,5559,251,72.54,16511.81,3.03,70.88,1.26,8.1,7.92,0.36,26.09,2.57208351022487,8.7650437,45.6983694
"Anno_2014","BESOZZO",41.16,0,19.09,19.5314323921873,23.16,49.84,56.85,40.2499718269014,8.99,30,0,44.42,44.8,44.1,22.57,6.42,13,3.2,3.99,35.12,31.53,29.79,132.14,0,149.58,33.5,55.89,59.72,10.07,29.05,8.87602046388477,72.1575044805481,9149,976,66.13,14710.3,1.47,69.27,3.07,8.22,8.11,5.7,26.11,151.817831986753,8.6708467,45.8435928
"Anno_2014","BIANDRONNO",39.64,0,13.49,21.400876824029,20.32,18.49,52.59,23.6811732208747,12.01,33.33,60,44.89,55.8,50.67,22.15,4.91,8.03,2.15,2.77,28.87,57.47,27.74,216.67,0,169.37,35.42,56.34,66.16,9.33,27.47,7.45284226090682,65.58,3399,207,72.12,15827.07,3.46,47.63,1.79,5.36,10.72,18.46,25,0,8.7173149,45.814342
"Anno_2014","BISUSCHIO",38.98,13.33,34.29,19.4943604689805,29.58,28.45,47.42,51.1069457664219,3.72,16.67,25,43.47,55,50.67,23.6,4.82,25.01,4.76,2.21,43.58,44.63,35.08,145.45,0,138.18,30.15,51.97,44.62,8.68,17.27,17.4369424481267,65.38,4337,173,66.34,10802.33,8.42,43,2.53,8.28,8.97,-5.98,29.63,13.5269668557295,8.8711869,45.8740202
"Anno_2014","BODIO LOMNAGO",34.34,0,11.63,22.4065704963558,22.94,42.59,69.54,29.8310655613552,20.98,33.33,33.33,45.01,43.67,53.56,23.17,5.68,10.08,3.36,2.43,37,44.95,23.1,100,0,160,35.99,58.48,65.84,7.34,37.14,15.1925303216359,71.1,2164,142,72.63,20194.27,4.62,71.41,1.39,8.81,5.56,10.2,30.99,254.142132635799,8.7512433,45.7896373
"Anno_2014","BREBBIA",44.05,0,16.65,19.1864345746529,23.39,38.44,54.88,37.1422198977214,7.92,27.27,20,45.67,57.2,50.27,19.15,6.76,10.49,2.96,3.45,33.62,39.73,28.2,200,5.88,179.91,36.2,56.32,63.85,9.82,26.43,10.1939336604446,71.8806941291417,3307,278,66.31,15253.86,0.94,72.85,5.1,11.69,5.7,-11.09,21.05,7.30996665748337,8.6491857,45.8286234
"Anno_2014","BREGANO",35.07,0,16.93,22.4361718328156,22.64,14.83,58.77,36.3710665088513,8.49,20,0,42.5,53.67,45.7,24.93,6.96,13.33,4.06,4.06,32.58,4.04,7.54,100,0,118.9,26.31,48.43,59.11,8.55,33.33,0,65.05,857,61,62.9,14113.91,0,38.62,2.34,7.02,7.02,5.85,26.09,0,8.6901545,45.8253891
"Anno_2014","BRENTA",47.7,0,18.6,17.6571122312698,25.81,16.74,44.89,41.1436067133291,6.66,42.86,50,43.17,60.5,49.29,23.13,5.08,14.57,3.48,2.94,36.88,8.76,14.77,250,0,134.48,29.1,50.75,61.26,7.73,18.75,0,67.6793002291574,1793,141,77.43,13010.42,0,36.55,1.11,8.31,5.54,-11.08,33.33,0,11.7546071,45.6142737
"Anno_2014","BREZZO DI BEDERO",37.88,3.51,15.0509039443308,13.9596195836717,32.54,5.63,65.4237688308255,39.942983402726,13.1173826953926,16.67,50,43.85,56.25,52.33,20.8081100488608,6.41650578834102,9.61491612863123,2.71289609879839,3.50798450576996,28.6570030967434,26.91,13.88,200,0,131.69,31.63,55.64,67.0027978706093,8.938407191048,29.6975063550002,5.32795022654249,70.8889594538038,1206,109,62.11,16611.2431517758,2.15,45.15,1.67,8.36,5.02,20.07,28.8649707624543,2.55742764130848,8.7090126,45.9777526
"Anno_2014","BRINZIO",43.42,0,16.24,13.071442929143,26.14,7.19,63.07,29.6506129359367,9.04,33.33,66.67,45.44,39,33,18.86,8.86,10.86,1.43,4,29.23,15.57,22.13,300,0,175.22,36.94,58.02,64.56,11.67,33.33,46.880065102607,70.22,845,34,66.91,15820.13,0,53.19,3.55,10.64,5.91,2.36,11.54,296.013507926133,8.7952571,45.8872668
"Anno_2014","BRISSAGO",39.48,6.67,36.73,13.818749622374,35.01,9.81,49.25,37.7112394259093,2.28,16.67,33.33,41.88,47.67,53,25.05,4.31,30.39,3.49,2.26,48.56,57.88,14.23,166.67,0,104.08,23.48,46.03,41.94,8.67,20.25,4.58955506744223,62.0836312098779,1281,80,68.34,9521.75,0,40.78,2.35,7.06,5.49,10.98,24,10.9277098874646,8.7112657,46.1200438
"Anno_2014","BRUNELLO",29.74,0,11.5,24.5156312686022,20.69,58.64,62.38,31.3180743065699,17.82,40,33.33,42.57,59.33,42.1,25.84,4.13,6.72,4.13,2.33,25.32,67.28,14.14,133.33,33.33,124.84,29.97,53.98,67.97,7.28,40.62,0,75.15,988,42,73.26,17859.51,1.41,74.19,3.01,10.03,4.01,-13.03,20,0,8.45,45.45
"Anno_2014","BRUSIMPIANO",36.39,0,52.25,10.5256289799126,37.54,5.76,53.96,19.2503107583693,4.91,50,33.33,43.02,45.33,48.9,21.86,4.92,44.08,3.1,2.55,59.9,20.88,32.93,189.313511120032,0,125,30.38,54.68,34.11,12.19,20.97,12.2666422893053,61.45,1227,108,49.23,9850.16,0.51,22.87,0,8.17,8.98,3.27,15.38,10.6084129698121,8.8893022,45.9493372
"Anno_2014","BUGUGGIATE",36.65,16.9,13.64,26.1992744559765,19,79.45,63.55,35.2208047431888,17.07,30,50,46.28,46,49.6,21.63,6.21,7.59,2.15,3.3,29.29,38.55,22.99,150,0,178.27,40.22,62.78,64.71,9.06,37.04,4.29086420917843,73.33,3099,100,72.52,18124.19,1.67,58.19,5.17,9.7,8.73,4.53,23.76,14.9560474800392,8.8078178,45.7792042
"Anno_2014","BUSTO ARSIZIO",38.38,18.6,13.51,35.303856607862,22.36,268.1,61.74,21.1588406940061,10.94,9.52,14.29,45.24,55,53.1,20.64,6.88,9.24,2.86,3.92,29.62,33.78,48.7,133.25,0.79,172.67,36.74,58.02,65.9,10.64,29.84,6.68934270690489,70.4823350685166,82518,7695,60.53,17097.75,3.32,93.62,4.65,9.74,8.64,10.52,24.13,47.8827555399342,8.8531265,45.611892
"Anno_2014","CADEGLIANO",44.78,5.48,57.68,13.0294937631823,47.23,5.06,45.41,26.9306490885847,1.38,0,0,42.88,55.75,51.75,24.06,4.65,50.85,4.99,2.61,61.99,25.64,24.59,180,0,133.77,31.09,54.34,27.36,13.45,11.32,13.2930699850211,59.7077582304275,2097,201,50.41,6403.42,0.61,24.14,2.41,17.38,14,28.49,14.71,0.0573221604150189,8.8406445,45.9670016
"Anno_2014","CADREZZATE",44.57,0,16.81,15.634077724895,23.65,33.84,59.49,25.8165567072165,9.05,40,33.33,43.53,40.33,40.2,23.67,6.6,16.3,4.01,4.27,36.71,35.22,29.42,146.445565046088,0,132.12,29.72,52.22,62.03,13.41,29.2,6.88360214141515,75.67,1844,249,69.88,13974.22,0.41,82.75,0,6.49,7.03,-5.95,19.44,0,8.6436417,45.7971265
"Anno_2014","CAIRATE",39.52,24.32,11.21,29.9276181717339,20.75,44.04,48.17,42.5621899100086,9.62,18.18,0,43.91,41.4,44,23.23,6.67,6.92,2.71,3.51,28.33,23.86,26.37,132.14,0,145.99,33.07,55.72,66.03,8.66,21.27,0,70.7688181673985,7877,441,63.27,14819.27,1.41,59.23,3.55,6.98,8.37,-3.3,36,0,8.8533919,45.6892634
"Anno_2014","CANTELLO",36.05,0.88,38.38,16.1360414535771,33.36,29.89,56.23,48.9936866225925,4.84,27.27,40,44.14,57.6,52.91,22.72,6.46,31.33,3.9,3.74,45.77,31.18,36.67,200,0,151.55,32.52,53.99,43.68,9.26,24.29,12.5877874138271,65.83,4684,213,64.2,11301.11,0.42,51.94,1.07,12.45,7.3,15.67,22.95,11.7962047411418,8.8959612,45.820969
"Anno_2014","CARAVATE",44.42,0,16.78,25.3552595129832,23.5,28.87,45.17,38.0649600433245,6.69,20,33.33,43.96,44,42.8,23.34,5.76,11.04,3.61,2.44,30.55,31.25,28.73,200,0,137.77,30.51,52.65,60.75,9.66,16.79,14.3882603492994,60.39,2582,142,67.55,13383.16,3.56,52.96,0.39,8.12,9.28,-5.03,32.43,0,8.6481809,45.8755043
"Anno_2014","CARDANO AL CAMPO",37.89,16.7,11.25,38.8227241681668,20.4,107.54,58.01,28.9852173236941,9.48,40,40,42.93,43.2,47.93,23.77,5.09,8.41,3.64,2.89,27.25,25.98,26.64,140,0,130.43,30.16,53.29,69.91,8.79,24.19,0,67.3,14875,1166,64.24,16154.96,2.39,61.87,2.02,7.35,8.77,5.8,31.52,0,8.7716745,45.6455568
"Anno_2014","CARNAGO",34.03,16.96,10.85,30.1637452519439,19.34,72.27,54.49,30.0603682904736,11.49,54.55,40,42.81,40.4,40,25.29,5.52,7.4,2.94,2.72,29,22.43,22.1,100,0,123.2,29.16,52.84,67.96,8.74,22.09,0,66.88,6662,291,72.67,15719.25,1.98,63.68,1.35,6.62,9.48,2.86,23.04,0,8.8412482,45.7225464
"Anno_2014","CARONNO PERTUSELLA",35.2,7.99,10.09,42.1097846077924,19.05,148.8,59.29,35.309952607008,13.09,31.25,50,41.38,56.33,46.5,25.86,4.55,7.85,3.34,2.6,28.72,32.87,28.23,126.09,6.52,106.03,25.7,49.94,71.16,9.57,21.54,0,69.5563774189893,17385,1249,62.27,16612.77,7.63,64.34,2.66,7.97,12.01,3.98,26.44,0,9.0450399,45.5985076
"Anno_2014","CARONNO VARESINO",40.49,0,12.86,19.8742771183636,19.78,45.4,50.69,27.2066592717277,11.25,25,40,44.23,53,49.5,22.65,6,8.49,3.03,3.32,27.57,18.69,24.44,100,0,149.03,33.47,55.93,66.3,8.67,20.68,7.35965649416256,74.07,4953,277,63.59,15876.91,1.44,49.71,1.01,8.65,6.64,-4.43,32.37,0,8.8337635,45.7384928
"Anno_2014","CASALE LITTA",41.81,0,14.5,14.2292170637844,21.33,16.72,51.1,30.1530860687876,9.65,12.5,0,43.86,52.5,54,23.71,6.68,9.27,3.39,3.48,31.9,32.14,22.09,129.524805536328,6.04914986982074,140.89,31.22,53.38,65.79,7.97,26.76,0,73.4912660015309,2666,113,73.34,15266.48,3.33,59.73,0,10.52,11.65,1.88,26.67,0,8.7419745,45.766703
"Anno_2014","CASALZUIGNO",47.12,0,27.22,14.5111003527172,29.6,8.33,48.78,32.2791486276818,4.38,0,0,45.18,72.33,50.3,21.63,7.8,19.68,2.13,4.96,31.02,17.72,10.52,162.5,12.5,168.85,36.83,58.64,53.65,11.26,21.67,27.4250044842263,64.98,1336,109,63.69,12970.34,0.82,41.24,6,12.75,7.5,9,29.73,322.190401131087,8.7003577,45.9113229
"Anno_2014","CASCIAGO",33.88,0,14.61,22.8916218825192,23.44,67.98,70.12,29.817333992147,21.31,25,25,45.78,47,43.17,19.84,7.46,8.75,2.01,3.83,27.99,30.01,23.92,125,0,182.56,38.72,59.93,64.36,9.48,44.37,15.0319641101056,72,3841,202,65.83,19761.47,3.84,67.51,1.03,11.64,3.62,-4.91,21.01,251.239128805578,8.7816865,45.8333727
"Anno_2014","CASORATE SEMPIONE",36.01,11.29,10.06,23.8942468326112,22.5,56.88,59.22,41.4742960152621,10.97,21.43,33.33,44.05,53.33,50.36,22.97,5.43,7.26,2.86,2.53,28.05,21.46,24.01,140,20,142.98,32.47,55.18,70.62,9.08,21.43,3.22313662791165,69.9607072543737,5756,355,66.1,16009.6,1.49,62.11,0.87,8.87,8.52,3.13,27.78,2.56438449395006,8.7400762,45.6741436
"Anno_2014","CASSANO MAGNAGO",38.4,20.52,11.57,26.9987677231608,21.84,136.26,52.17,39.7504262753544,9.3,21.43,16.67,44.42,47.67,48.79,22.06,6.66,7.61,2.67,3.6,27.05,26.12,31.72,146.48,2.82,157.63,33.98,55.53,66.78,9.28,23.42,8.28826032429274,69.0572350240049,21677,1537,76.47,15226.16,2.33,71.83,3.28,8.45,8.22,1.62,25.13,2.55759877942292,8.8272627,45.6717299
"Anno_2014","CASSANO VALCUVIA",44.26,0,31.44,8.88366138022928,29.56,5.82,53.41,18.7009471021191,4.18,55.56,0,43.21,39.75,46.56,23,6.97,23,5.23,5.23,53.66,18.29,6.5,131.681670417909,5.82941349425329,125.21,36.25,65.21,46.51,9.9,25,46.4304564033949,71.09,666,53,73.92,10788.32,1.68,31.23,0,17.84,10.41,-11.9,20,322.344377362933,8.7661257,45.9350163
"Anno_2014","CASTELLANZA",37.77,29.34,13.44,40.6589774212501,21.44,184.27,60.57,35.6918070075742,11.19,12.5,0,47.04,50.67,52.19,18.28,7.3,8.37,2.34,4.18,27.7,52.58,29.57,160.76,0,217.94,41.62,60.71,65.2,10.78,31.72,5.74637107940028,71.9367807804826,14338,1096,60.73,17262.81,1.47,80.48,5.52,10.49,8.04,7.55,25.36,17.947257781774,8.8915002,45.6053912
"Anno_2014","CASTELLO CABIAGLIO",39.44,0,20.22,15.4137181523407,23.37,5.3,66.28,19.2091170040986,7,44.44,25,43.69,33.5,34.44,18.68,5.45,17.9,1.95,2.33,45.45,12.28,17.06,133.33,0,139.19,25.94,44.58,61.93,7.12,37.14,16.2626900737255,61.15,582,37,66.93,15328.71,1.33,60.55,5.19,5.19,6.92,12.11,38.89,152.490911242624,8.756608,45.8915422
"Anno_2014","CASTELSEPRIO",38.4,0,11.2,14.5806066722315,19.43,29.59,60.36,32.0752892322571,13.81,44.44,66.67,45.07,41,43.67,19.12,7.08,7.26,2.12,4.42,26.01,31.97,23.44,131.159487659458,0,155.8,33.49,54.99,69.47,7.77,27.27,15.9351094074663,73.86,1302,19,66.66,17173.11,1.03,72.88,0,9.21,3.84,3.07,31.25,266.276900363563,8.8627608,45.7168947
"Anno_2014","CASTELVECCANA",43.55,6.67,32.78,10.8468373533171,32.16,3.66,57.98,31.211113701975,6.17,33.33,0,46.34,61.67,55.56,18.44,8.21,23.77,2.77,5.65,46.48,21,31.35,100,0,183.4,37.58,58.07,48.89,10.57,25.81,6.55049033605789,68.55,1994,129,62.99,13745.72,0.56,34.57,1,13.53,8.02,3.51,20.63,0.492830902474588,8.6617788,45.9471992
"Anno_2014","CASTIGLIONE OLONA",39.4,12.87,14.6,26.2050543433234,20.3,73.76,51.7,32.696604880028,10.52,41.67,40,44.34,56.6,52.67,21.57,6.6,9.23,3.09,3.98,35.21,32.89,31.59,140.74,0,157.12,33.24,54.4,63.01,8.24,21.86,7.52468507068488,68.41,7754,420,72.52,15300.34,1.59,61.29,3.46,6.28,7.18,-12.56,24.1,53.1340375959199,8.8714098,45.7526423
"Anno_2014","CASTRONNO",36.43,0,11.53,24.5513147129462,19.9,93.64,56.19,26.063102625856,12.46,60,60,43.63,45.6,38.7,22.66,5.58,7.38,2.26,3.18,26.72,27.15,24.27,172.73,0,137.06,30.59,52.9,66.61,8.51,27.27,0,66.75,5257,277,73.06,16113.6,1.93,60.61,2.09,8.74,7.79,-1.33,35.5,0,8.8119097,45.7477175
"Anno_2014","CAVARIA CON PREMEZZO",37.11,5.11,10.72,34.6548774744986,21.91,115.44,52.81,25.075781962489,11.91,41.67,40,42.78,53.2,48.5,23.97,5.53,8.23,3.95,3,28.08,32.09,25.64,135.71,0,129.68,28.25,50.03,66.11,10.1,22.62,0,68.11,5823,650,72.05,15353.57,1.57,61.35,2.4,9.43,10.11,-4.97,21.7,0,8.8029492,45.6946472
"Anno_2014","CAZZAGO BRABBIA",43.1,0,16.1,19.3316937782585,23.48,18.23,57.83,48.4701536759083,6.76,33.33,25,44.07,49.75,46.78,23.56,7.55,9.06,1.21,4.83,34.19,33.75,22.14,125,0,141.09,35.41,60.51,62.71,6.75,30.23,0,72.55,815,34,73.28,15100.81,0,80.49,4.88,8.54,9.76,-13.41,26.32,0,8.7348481,45.7958669
"Anno_2014","CISLAGO",37.83,0.31,12.32,29.93953255534,20.77,63.5,55.89,34.68474398266,11.96,22.22,25,42.68,46.75,45.89,23.72,5.6,7.86,3.4,3.06,32.45,19.29,27.46,147.83,4.35,121.72,27.58,50.23,64.52,8.52,24.52,8.83760030324354,68.9141528381426,10277,947,63.13,15980.35,2.28,64.67,2.24,6.43,8.86,-0.58,24.93,151.604446155349,8.9740024,45.660827
"Anno_2014","CITTIGLIO",44.19,0,17.83,18.7213886654074,23.19,22.33,50.5,36.066091793128,6.03,25,40,44.92,46.8,54.33,20.54,7.21,12.86,3.32,4.36,36.63,27.86,24.54,106.67,6.67,163.55,35.67,57.48,60.01,9.6,21.53,5.12149008879885,68.2892179926749,4012,377,64.08,13988.93,1.14,56.51,3.73,12.2,7.72,1.99,29.29,0.511204404304792,8.6589791,45.9096911
"Anno_2014","CLIVIO",38.73,0,50.59,15.8730392759336,45.4,32.17,49.49,41.7063339263028,1.95,42.86,40,43.85,45.8,44.14,20.9,3.8,44.54,3.33,2.14,52.19,20.53,26.76,233.33,0,157.25,31.4,51.37,32.36,8.02,20.72,8.26308961636521,61.2615099560582,1967,37,59.86,7461.77,0.49,46.04,1.52,7.59,4.55,-6.58,38.1,14.5497028145681,8.9309469,45.8642658
"Anno_2014","COCQUIO",44.8,0,15.47,17.369741473915,23.88,39.67,50.74,43.4209172362681,6.69,36.36,0,45.66,59.5,49.45,21.55,7.48,10.22,3.14,4.49,34.88,24.97,26.31,133.33,6.67,172.52,37.18,58.73,63.53,9.06,22.03,9.51360351475779,71.8682952113863,4744,414,63.07,14491.88,3.26,76.53,3.16,10.33,9.49,1.05,26.11,6.43845080186317,8.6974484,45.8636801
"Anno_2014","COMABBIO",39.17,0,15.63,21.9482325318507,23.22,18.56,62.66,26.2233902827907,12.71,20,66.67,43.23,52,49.3,22.29,6.01,12.02,1.74,3.88,30,29.83,17.4,100,0,128.74,28.98,51.49,67.42,11.7,26.67,24.0157335421008,75.69,1130,73,59.17,17404.51,0.93,67.8,0.87,11.3,1.74,-26.08,21.43,152.974652033755,8.6747718,45.7699832
"Anno_2014","COMERIO",35.75,0,15.68,20.6982481532473,21.1,29.37,71.01,37.1874446159906,20.47,11.11,0,44.4,52.25,47.78,20.33,6.11,11.97,2.93,2.76,27.2,41.12,22.1,140,0,156.22,34.01,55.78,65.45,8.12,44.64,0,73.6820128553866,2784,287,65.66,19076.95,0.25,54.81,1.8,10.46,6.85,11.54,15.79,0,8.44,45.5
"Anno_2014","CREMENAGA",43.77,4.35,66.67,13.403282826595,54.99,3.96,46.19,29.3764785707175,0.77,11.11,33.33,42.13,54.67,48,22.82,3.9,52.55,4.8,1.8,61.22,13.79,10.5,100,0,122.76,27.61,50.09,20.65,5.5,9.3,0,62.488789023298,808,45,61.62,5461.95,0,19.64,2.46,8.59,9.82,-17.19,50,0,8.8042188,45.9900624
"Anno_2014","CROSIO DELLA VALLE",40.3,0,9.89,22.5842225278149,15.28,36.79,54.33,32.242089221995,18.32,33.33,33.33,44.65,46,38,20.3,6.77,5.64,0.75,3.76,30.77,60.28,12.8,100,0,138.2,30.15,51.96,69.32,9.12,38.71,22.3761104044348,62.32,614,19,73.06,18753.87,1.01,72.93,4.86,6.48,8.1,-11.35,29.41,0,8.7698406,45.7595349
"Anno_2014","CUASSO AL MONTE",40.75,0,41.25,14.2479659989513,33.84,6.86,50.67,37.0276902481336,3.56,25,60,42.79,46.6,46.33,23.17,5.36,33.95,4.68,3.14,42.55,16.31,27.16,125,0,126.83,27.7,49.55,42.35,9.14,17.3,17.0471932084489,64.85,3644,168,52.27,10358.28,1,29.89,1.1,9.6,12.07,-3.84,23.08,14.6840489276357,8.8802614,45.9157789
"Anno_2014","CUGLIATE",38.66,4.6,47.17,15.1092482825325,45.13,15.13,42.72,33.4283414934404,1.51,44.44,0,41.97,42.25,48,25.4,4.41,45.83,5.29,2.24,59.27,10.2,20.04,150,0,116.53,27.65,51.38,33.32,10.06,17.26,5.73444067936651,61.0652679460727,3144,204,66.47,6963.56,2.18,29.03,1.91,7.34,8.29,4.78,26.67,0.0574735920331803,8.8198314,45.9476392
"Anno_2014","CUNARDO",42.02,4.6,37.67,16.9643001132758,38.97,30.53,49.71,47.9854760820579,2.53,10,33.33,42.1,53.33,41.9,25.44,6.15,35.91,5.32,3.24,53.29,36.62,40.81,177.78,11.11,116.42,29.01,53.93,43.15,9.83,22.38,12.7919614633497,59.57,2947,303,66.46,9133.08,0.6,56.81,3.08,9.58,8.21,18.48,26.09,10.9677844000943,8.8035234,45.9344162
"Anno_2014","CURIGLIA CON MONTEVIASCO",49.57,0,48.39,8.70340767785569,44.55,1.01,40.2,23.445023162873,0.25,40,33.33,50.14,61.33,39.9,9.09,10.1,34.34,2.02,8.08,50,12.5,39.29,131.659907707822,6.65837822539932,427.27,39.5,48.74,39.09,7.78,42.86,10.1187499437582,51.27,177,7,50.98,8470.96,0,56.5,0,16.95,5.65,11.3,0,47.9756976977272,8.8296953,46.0644588
"Anno_2014","CUVEGLIO",44.86,0,25.42,21.4601908254619,28.05,37.73,46.25,34.2517623251626,4.8,30,20,43.37,51.6,48.5,21.82,5.38,17.88,3.45,3.09,42.89,33.77,30.28,112.5,0,130.1,27.76,49.1,53.45,8.41,22.22,19.4047693341238,67.36,3428,255,58.85,12755.35,4.73,75.4,2.35,6.75,7.33,10.86,25.84,166.140524059774,8.7332138,45.9044147
"Anno_2014","CUVIO",46.94,0,22.41,17.6742640653311,26.89,13.76,47.62,36.0145637856403,4.26,33.33,0,44.41,59,54.89,22.05,6.77,18.3,2.45,4.47,37.56,46.63,27.27,183.33,16.67,150.81,35.38,58.85,58.59,7.69,21.25,17.584983055156,61.32,1674,168,61.6,12308.32,0.27,45.93,3.58,16.7,5.96,7.75,35.19,13.9817832667945,8.7340387,45.8977202
"Anno_2014","DAVERIO",35.76,0,11.26,24.7937704852594,18.83,55.9,58.73,33.0015338778886,17.08,25,25,42.99,51.25,47,24.82,6.04,7.74,2.82,2.98,27.87,49.88,25.87,100,0,126.21,27.76,49.76,68.16,7.46,23.18,8.75256502148775,70.8395561504854,3115,136,72.27,16840.51,0.5,60.91,1.29,5.16,6.12,6.77,33.33,149.733885040165,8.7741363,45.7717534
"Anno_2014","DUMENZA",45.04,4.49,46.45,16.8484002901313,38.93,2.77,50.55,48.0915927567027,1.59,55.56,0,45.02,48.33,49.11,20.78,4.93,35.43,4.19,3.74,58.79,17.67,31.8,200,0,163.27,33.68,54.32,38.83,7.7,17.78,5.09234934503992,57.53,1487,63,66.38,9052.05,3.28,32.51,0.68,7.45,11.51,10.16,20,3.77047955482005,8.7877672,46.0185192
"Anno_2014","DUNO",45.36,0,27.27,10.4720272325339,25.96,2.01,61.45,30.9620379743979,3.15,11.11,25,46.82,70.5,60.11,17.5,8.75,20,1.25,5,28.57,2.86,7.35,150.583653784855,5.18757964262433,170.59,30.21,47.92,53.93,8.43,14.29,14.2770637351633,67.3365624150996,141,6,53.64,14672,0,35.34,0,7.07,7.07,-7.07,40,308.424955392431,8.44,45.55
"Anno_2014","FAGNANO OLONA",38.29,17.31,11.07,32.5385360778468,21.08,95.27,52.31,24.2718556232172,12.49,33.33,33.33,43.3,53.83,42.53,24.53,6.38,7.38,3.43,3.31,27.62,21.69,27.87,115,5,136.23,32.26,55.95,67.77,9.02,20.94,0,67.87,12339,804,65.09,15617.58,0.53,62.56,1.62,8.59,10.05,-1.54,27.11,0,8.866763,45.66834
"Anno_2014","FERNO",39.9,13.27,10.87,39.9520152169673,21.47,57.75,46.82,36.5470167720545,7.88,22.22,20,42.91,55.6,45.44,24.8,5.64,7.47,3.02,2.91,28.61,49.53,26.15,142.11,0,131.66,29.6,52.08,66.39,8.82,16.46,0,70.3092875627447,6937,590,60.78,14140.17,0.82,55.58,2.73,8.47,9.48,-8.33,29.39,0,8.45,45.37
"Anno_2014","FERRERA DI VARESE",47.21,4.08,37.44,13.7626772509215,31.39,24.24,42.4,41.5952305269375,2.49,33.33,33.33,40.93,53.67,48.33,27.27,5.24,29.37,5.24,3.15,44.57,11,10.55,200,0,98.41,26.72,53.88,44.47,14.27,21.15,12.6143133926328,68.1,710,30,74.06,9793.26,0,47.75,2.81,8.43,15.45,-12.64,27.78,3.75893122328607,8.7871838,45.9314438
"Anno_2014","GALLARATE",39.34,15.01,15.6,35.3627486821099,23.11,298.77,62.77,21.21634775664,10.39,9.52,25,44.04,56.5,51.95,21.28,6.11,12.41,3.62,3.53,32.35,45.65,45.58,132.57,0.66,151.43,34.06,56.55,64.26,11.04,32,4.98982549378241,69.8911370695959,52850,8347,64.99,16863.8,2.93,108.35,5.77,9.15,9.31,7.35,23.58,48.1935142977555,8.7921269,45.6623632
"Anno_2014","GALLIATE LOMBARDO",37.74,0,8.72,19.6891573537677,18.13,26.57,73.65,39.2963875657977,31.14,50,100,42.34,47,57.17,23.81,5.26,7.52,2.76,3.01,16.67,38.49,12.24,100,0,104.68,27.62,54.01,69.81,6.66,51.16,15.0451307570844,69.0026199257874,979,21,73.25,22619.49,6.08,80.93,1.01,4.05,7.08,-22.26,29.41,0,8.7706383,45.7887405
"Anno_2014","GAVIRATE",37.55,12.55,14.5306204099267,28.2029622951488,22.38,66.2,65.2664770824003,36.7932848754706,13.8585976198971,36.36,40,45.95,50.4,49,20.4366020024297,6.54003705356537,10.509338464146,2.61735071052192,3.35492959299097,29.8991870845967,47.65,33.27,121.43,0,185.89,40.01,61.53,66.0583352454185,9.16186571556855,33.6874286530994,7.47585755374679,65.52,9331,667,68.45,17252.5534019464,3,75.23,1.5,10.95,9.98,3.65,26.0992370517465,16.7397774445533,8.7122336,45.8459052
"Anno_2014","GAZZADA SCHIANNO",38.15,5.38,12.54,26.4512570859795,20.38,82.83,60.06,33.7315078418794,12.5,20,40,45.39,46.6,51.8,19.84,6.28,7.62,3.02,3.76,31.18,57.19,28.75,140.91,4.55,177.76,36.48,57,66.53,9.49,34.3,6.6846191255307,71.04,4651,298,71.71,16897.83,3.14,76.6,4.73,8.61,8.61,1.51,25.28,20.8239488272358,8.83566,45.7798417
"Anno_2014","GEMONIO",45.52,0,15.98,20.7212225550507,23.92,62.59,55.88,35.5132149659591,7.26,20,25,43.03,53.75,46,22.83,5.77,11.7,4.55,3.9,31.64,36.86,25.68,233.33,0,127.07,31.61,56.49,61.96,9.93,23.23,0,69.3435036507268,2880,263,64.56,14357.55,4.42,70.47,1.04,7.29,6.94,0,22,0,8.6730412,45.8816445
"Anno_2014","GERENZANO",36.66,7.33,10.87,33.182144759282,20.35,76.94,62.48,33.5414704618819,13.37,11.11,0,42.11,46.4,49.89,25.18,5.12,8.29,3.87,2.95,29.58,27.83,24.67,131.58,5.26,115.16,27.88,52.08,68.46,9.27,28,8.75332735220591,69.9047277029249,10789,1002,60.87,16641.5,10.6,63.55,1.77,7.62,9.76,2.69,22.5,0,9.0007454,45.6396733
"Anno_2014","GERMIGNAGA",38.74,35.07,34.58,20.2440073701791,35.94,45.07,52.54,46.5742014096526,3.39,33.33,25,44.49,43.5,44.33,20.64,6.36,29.13,4.57,4.34,47.7,32.57,28.72,116.67,0,166.93,33.53,53.62,45.15,12.52,21.18,11.8967480062708,60.37,3857,306,73.84,10952.19,4.79,49.6,1.55,10.59,8.27,-4.91,17.39,5.07035927752593,8.7234702,45.9909936
"Anno_2014","GOLASECCA",43.53,5.41,13.87,19.6899908828791,21.72,20.44,48.32,39.6208284835097,9.88,40,50,45.16,60,51.4,18.93,6.74,10.64,3.09,4.06,31.59,19.88,26.28,125,25,170.18,32.96,52.32,66.69,8.54,17.75,14.408323160172,71.5490024158563,2736,196,66.59,16478.11,2.05,52.71,1.47,11.8,9.21,19.54,33.68,57.1179600864066,8.6556463,45.6969129
"Anno_2014","GORLA MAGGIORE",38.82,7.48,10.23,20.0452285589819,20.34,69.6,50.74,43.0442187535766,12.96,14.29,0,44.44,47.4,47.79,22.54,6.05,6.05,2.83,3.9,27.55,25.15,30.99,133.33,0,153.53,33.71,55.66,67.25,9.27,25.1,3.2392452017518,71.5335828242808,5023,250,57.1,16024.73,1.19,64.92,2.39,7.37,8.76,-0.8,25.64,2.58777087587876,8.9044202,45.6662109
"Anno_2014","GORLA MINORE",39.28,16.14,11.52,38.2642248808237,21.01,83.15,52.36,26.9954157209705,11.11,41.67,40,43.1,53.6,43.33,24.09,4.97,7.89,3.14,2.74,30.22,36.42,29.77,190,0,130.82,29.28,51.67,66.94,8.62,21.54,8.94905691907963,69.48,8555,617,56.43,15611.74,1.04,66.53,1.17,6.08,8.18,-1.64,33.11,153.708129994566,8.8987103,45.6434898
"Anno_2014","GORNATE OLONA",42.6,0,15.03,23.7756124702957,22.82,34.92,55.49,38.7553613157159,12.84,30,33.33,42.78,41.67,51.9,24.08,5.02,9.81,3.23,3.34,35.53,32.41,29.21,100,0,119.25,27.93,51.35,65.47,8.18,29.06,9.20989154324135,67.08,2245,81,60.36,15986.68,3.82,66.76,1.34,6.68,6.23,-1.34,28.81,157.108495269509,8.8599223,45.7395732
"Anno_2014","GRANTOLA",44.19,2.5,32.05,13.7489939819785,34.14,26.89,44.76,18.5737683552637,2.16,37.5,25,41.76,53,42.75,24.62,4.81,28.85,4.23,3.08,49.54,22.91,21.83,200,0,112.57,25.47,48.1,44.21,12.7,21.43,18.2823380704393,67.91,1272,126,77,9400.96,0.57,40.44,3.97,4.76,9.52,12.69,25.58,2.05142697849547,8.772679,45.9484852
"Anno_2014","INARZO",37.54,0,11.98,14.1876220979293,19.82,26.3,60.71,30.2174730864544,13.59,22.22,33.33,42.82,39,49.89,23.86,4.55,10.45,2.05,3.18,30.97,14.62,12.44,137.265080175064,8.16459659512854,118.12,25.75,47.55,66.91,8.48,23.4,8.83786578146593,72.4560973084032,1091,54,73.2,15494.53,1.3,54.28,0,4.6,11.04,0.92,22.86,151.131771726765,8.735095,45.7841576
"Anno_2014","INDUNO OLONA",38.51,10.4,18.6,21.2735192030887,23.63,49.82,58.95,50.0295776253117,9.24,56.25,33.33,44.36,47.67,49.19,21.8,6.7,12.91,3.82,3.3,33.64,29.77,29.82,143.24,2.7,155.11,33.8,55.59,58.79,9.56,28.36,14.3858031874971,66.66,10354,662,65.81,14986.08,2.31,55.27,3.56,7.61,7.61,-6.16,20.13,16.0747779152459,8.44,45.55
"Anno_2014","ISPRA",41.91,0,21.47,16.7502820216335,27.87,21.75,62.33,50.4712553738066,5.29,58.33,40,44.9,43.8,48.58,20.73,5.86,21.4,3.14,3.35,33.18,30.78,31.07,100,0,155.98,36.08,59.21,61.52,15.42,33.88,5.19130629543495,72.85,5349,754,70.48,13735.13,1.96,59.67,0.37,11.53,4.83,-4.65,13.87,0,8.6120782,45.8139584
"Anno_2014","JERAGO CON ORAGO",38.79,2.93,10.54,33.0753469686102,19.62,93.44,54.73,37.7493650635399,12.91,66.67,20,43.54,51.6,47,23.72,5.41,7.39,2.73,3.2,25.41,29.35,27.25,128.57,0,138.63,31.23,53.76,67.77,8.18,27.37,3.91154826137299,67.6909589504899,5238,330,72.07,16207.67,1.64,64.03,1.34,6.71,7.09,8.05,29.88,1.94601266290433,8.798483,45.706165
"Anno_2014","LAVENA PONTE TRESA",39.04,5.21,55.86,18.4667933472104,51.41,88.02,46.55,36.6873947959266,1.54,40,20,43.63,46.8,47,21.24,5.31,51.01,4.42,2.74,61.08,37.17,52.96,128.57,0,146.32,30.84,51.92,28.61,10.21,15.33,9.36744046341772,61.0778817885883,5632,460,57.87,6781.68,2.07,63.65,3.74,10.88,9.27,9.81,18.39,3.73764089503556,8.8725744,45.9564617
"Anno_2014","LAVENO",42.88,29.21,19.88,15.9019945859488,24.78,30.9,56.69,33.4285068386256,7.47,26.67,20,48.56,58.4,56.33,17.21,8.2,12.92,2.36,4.84,34.32,25.83,38.12,120,0,242.82,47.57,67.16,60.45,12.14,25.19,13.6952233075704,67.217043654454,8901,785,64.47,15746.52,1.6,75.1,1.12,15.67,5.82,2.35,20.47,221.409924618075,8.6133511,45.9131543
"Anno_2014","LEGGIUNO",40.4,9.22,18.08,20.2477372621333,26.32,16.08,58.53,44.493694263857,7.95,37.5,0,44.44,52.75,47.62,24.02,5.74,13.41,2.68,2.81,36.58,19.4,25.31,100,0,157.98,33.82,55.23,62.77,9.99,22.34,5.50166872832704,71.9973389479667,3826,321,68.25,14849.72,1.45,52.69,1.59,10.33,8.47,28.07,24.11,1076.85595464139,8.6207601,45.8747686
"Anno_2014","LONATE CEPPINO",38.64,0,13.81,23.4701906116725,21.76,57.89,51.19,36.0302796011103,11.15,27.27,33.33,42.36,51.33,46.64,26.65,5.49,9.23,4.09,3.04,33.87,32.19,25.86,100,0,115,28.48,53.25,64.07,8.13,19.86,8.93659087528836,69.62,4941,237,63.89,14784.48,0.25,53.58,1.21,8.9,8.9,-1.82,29.71,152.90529018501,8.8798352,45.7086618
"Anno_2014","LONATE POZZOLO",39.24,12.56,12.79,27.7784677232842,21.56,34.37,46.83,33.3019991651539,9.24,26.67,50,43.37,45.83,47.13,24.41,5.46,8.71,3.14,2.76,30.95,38.5,36.56,156,8,139.6,31.6,54.24,65.91,9.14,16.91,3.50759539601296,68.2,11949,918,57.34,14348.47,10.31,75,4.19,7.97,7.89,5.03,31.9,283.102758674903,8.753802,45.5993133
"Anno_2014","LOZZA",30.27,0,15.67,26.712501757375,22.2,46.2,61.27,30.5683014982417,9.8,50,25,43.05,50.5,47,24.62,7.39,11.93,2.08,4.36,31.67,29.31,17.93,100,0,137.14,28.81,49.82,65.98,6.93,36.78,15.0299040395612,72.87,1265,42,73.23,15179.64,0,57.3,4.78,7.16,9.55,11.14,38.71,0,8.51,45.47
"Anno_2014","LUINO",41.33,15.3,39.92,14.4690149461089,35.16,49.51,54.09,33.2897164790271,3.46,25,20,45.95,57.6,51.44,18.5,6.79,31.21,3.69,4.07,49.38,38.66,55.01,154.05,0,195.6,39.43,59.58,42.03,10.66,25.65,8.2124544010266,64.551627156151,14833,1217,61.86,10997.78,0.67,63.72,2.5,10.88,8.18,7.23,21.61,1.23551385285606,8.7464,46.0018022
"Anno_2014","LUVINATE",35.53,0,18.31,19.6815946326722,22.52,27.76,75.5,28.9929578170374,21.31,22.22,25,46.21,42.5,46.56,17.22,6.19,12.04,2.51,3.85,31.82,20.63,18.71,100,0,187.2,37.53,57.58,64.97,9.21,46.43,15.1696959320775,72.4789789401396,1310,122,69.22,23826.09,0,83.11,0.77,7.7,6.16,17.7,29.27,253.407703517043,8.7715829,45.8386858
"Anno_2014","MACCAGNO CON PINO E VEDDASCA",41.91,13.227774547142,44.19,13.7389119577086,36.19,3.07,58.66,32.2620830625821,2.78,30,0,45.4104500250451,47.33,45.5,14.33,7.63,34.28,2.77,5.01,50.8,21.07,34.59,212.5,0,185.886065844036,33.3918102466772,52.791848369714,38.04,13.24,30.82,9.33570630934661,65.66,2551,220,64.65,11003.01,0.67,139.56,3.15,11.04,8.67,13.8,20.5571586808612,50.9152608981363,8.7366493,46.0385285
"Anno_2014","MALGESSO",40.7,0,13.9634776271174,20.0661753402508,18.86,23.08,57.0735107936943,50.9331947810376,12.3660553291608,11.11,0,43.45,35,37.44,23.293010499913,6.30013370203204,9.31640346662336,2.43453135918496,3.27646323555624,31.0375570531332,49.96,18.8,100,0,137.37,31.55,54.52,65.5958955829559,8.56548994399285,26.9567702178208,6.85748420456227,68.68,1312,83,66.43,15556.3249497685,0.16,43.12,0.76,5.3,5.3,-15.13,29.0864851545447,0,8.679602,45.8278037
"Anno_2014","MALNATE",37.87,7.65,24.55,22.1375425700546,25.59,104.21,54.92,48.858345884835,6.63,35.71,50,43.61,43.33,47.71,23.53,5.82,18.31,4.05,3.21,39.71,20.09,33.3,118.18,6.06,140.88,32.55,55.65,53.78,9.54,27.57,6.44296883483406,68.3035362923515,16912,1398,74.5,13318.52,4.05,50.96,1.95,9.29,9.35,2.07,23.33,1.42499538538087,8.8827431,45.7971315
"Anno_2014","MARCHIROLO",44.41,5.08,49.44,18.2727219977277,45.5,35.7,42.9,33.4191527428214,1.99,28.57,0,41.4,48,49.71,24.21,3.35,45.22,4.95,1.74,56.02,32.03,38.16,171.43,0,113.73,26.35,49.53,33.33,9.37,14.64,6.11019593616213,61.082009316312,3462,351,46.37,7431.95,0.61,52.16,4.03,8.36,6.05,-2.31,9.68,0.061021387951592,8.8355525,45.9416258
"Anno_2014","MARNATE",36.23,16.76,10.83,40.0763558070539,18.51,135.36,56.42,29.3744087182848,15.08,41.67,40,42.87,59.6,49.67,25.57,5.28,6.07,2.74,2.83,29.85,27.23,25.03,133.33,0,129.31,29.64,52.56,70.39,7.74,27.44,0,72.1,7686,391,63.67,16813.69,2.7,80.55,2.35,6.54,10.07,6.67,24.15,0,8.8983105,45.629061
"Anno_2014","MARZIO",44.5,0,26,18.4850392815212,33.03,13.46,66.47,35.5518319161928,3.03,44.44,0,44.66,52.33,46.78,14.29,5.44,23.13,3.4,4.08,37.04,5.92,25.17,100,0,212.5,29.82,43.86,55.78,13.46,31.82,7.39179365243226,67.34,328,22,41.93,12370.59,0,73.17,3.05,9.15,3.05,6.1,40,0,8.856998,45.9351651
"Anno_2014","MASCIAGO PRIMO",45,0,31.31,12.5099397829649,29.78,5.53,53.89,21.443612006833,6.65,33.33,33.33,43.73,52.33,45,19.05,3.97,25.4,2.38,0.79,48.08,5.3,9.09,157.459917115231,0,148.65,26.32,44.02,48.98,12.93,20,0,75.51,298,33,73.35,12180.34,0,33.39,0,10.02,0,0,14.29,0,8.7825253,45.9217733
"Anno_2014","MERCALLO",39.35,0,14.34,20.863820947683,18.96,22.8,54.95,25.828906492494,8.31,25,75,44.25,36.5,51.25,22.09,6.07,9.83,2.06,3.76,31.06,23.28,26.05,200,0,145.59,33.85,57.09,66.85,8.31,22.41,0,78.27,1853,94,67.19,15725.37,2.24,62.86,1.08,5.96,11.92,2.17,19.61,0,8.6694289,45.7491222
"Anno_2014","MESENZANA",35.67,5.31,37.66,17.7247180584477,35.11,27.44,47.89,34.7166401078995,3.37,25,33.33,41.21,36.33,39.5,27.13,5.46,34.99,5.62,2.57,46.85,48.7,29.89,178.57,0,104.49,25.94,50.76,45.23,7.42,7.37,4.54582453713733,65.06,1495,72,68.35,9782.76,0.97,80.46,9.39,8.05,10.06,2.68,40.62,10.8315878257621,8.7574377,45.9477879
"Anno_2014","MONTEGRINO VALTRAVAGLIA",42.55,2.7,38,15.7989528655466,35.4,6.14,53.53,25.7478759391929,2.88,10,33.33,43.45,63,57.1,23.15,3.86,32.05,3.86,2.08,49.75,12.46,23.18,200,0,129.86,29.32,51.89,44.1,8.9,20.55,20.3746587658244,52.75,1501,83,68.66,10132.21,0,39.49,0.67,12.05,10.04,11.38,21.88,28.4238522033809,8.7676915,45.9737304
"Anno_2014","MONVALLE",42.14,40,18.68,19.6326305842976,22.61,30.39,57.46,46.6246801632039,6.8,33.33,33.33,43.11,49.33,46.22,23.05,4.59,16.06,3.44,2.64,38.01,35.6,22.89,125,0,125,28.85,51.92,62.6,9.31,23,19.8653449254973,72.58,2009,180,69.03,14122.92,0.46,62.75,2.01,5.02,10.54,11.55,30.16,155.548198045908,8.6343935,45.8552098
"Anno_2014","MORAZZONE",39.05,0,12.92,20.2579941413182,20.23,45.52,54.87,39.0449898473739,11.05,18.18,40,44.77,39.2,40.82,20.62,7.25,8.62,3.37,3.71,27.52,25.13,27.73,100,0,157.89,32.34,52.82,64.31,8.72,26.46,15.2332249343161,72.44,4269,221,71.77,15754,0.21,55.98,0.7,7.7,7.46,-8.16,30.47,0,8.831489,45.7650204
"Anno_2014","MORNAGO",38.57,0,10.72,23.7836919248575,18.03,28.03,52.95,33.129502372505,14.73,41.67,40,42.37,45.8,46.5,27.86,6.26,8.09,3.75,3.5,29.34,36.56,29.44,114.29,0,113.38,28.7,54.02,69.56,7.78,20.8,8.77988582131671,70.6,5045,210,72.99,16212.69,12.38,61.92,1.39,7.96,10.15,6.57,30.26,150.257138705453,8.7538274,45.7501813
"Anno_2014","OGGIONA CON SANTO STEFANO",37.61,3.28,9.61,28.8504752174781,21.2,115.11,49.77,37.2405641188929,11.76,20,20,43.83,55.4,51.3,22.63,5.83,6.84,3.18,2.89,26.29,34.56,22.59,150,0,147.03,30.53,51.29,66.43,8.02,18.88,3.19692535715457,70.221671652906,4275,288,72.69,15746.73,1.16,68.17,0.93,7.94,7.24,-3.27,30.28,2.5543063915289,8.8152723,45.7047422
"Anno_2014","OLGIATE OLONA",36.67,17.94,11.9,38.0622493610867,20.39,146.25,61.24,25.4025335120494,15.4,28.57,33.33,43.86,53.17,48.64,24.44,6.08,7.27,2.46,3.28,26.21,33.74,28.29,142.5,0,136.19,32.36,56.12,68.51,7.98,30.98,0,72.34,12410,724,62.24,17793.3,2.34,76.67,6.46,7.76,10.1,2.83,25.85,0,8.8876103,45.6332679
"Anno_2014","ORIGGIO",31.89,9.69,8.81,30.431473305632,16.63,68.73,61.47,36.2180249414664,17.03,6.67,0,43.57,56,49,23.34,5.71,5.23,2.67,3.03,25.15,52.57,25,159.52,2.38,136.32,30.65,53.14,71.95,7.71,25.49,3.19578749649666,69.3249397597414,7693,263,59.9,18181.16,37.95,60.31,5.49,8.77,11.64,10.07,32.43,0,9.0150839,45.598457
"Anno_2014","ORINO",49.09,0,23.3,9.57644409180566,29.83,8.32,57.2,26.3025481286856,6.25,30,0,45.92,47.33,50.5,19.4,6.55,20.4,2.27,4.28,49.02,3.92,9.11,105.165629526094,2.50759915616726,185,32.12,49.48,55.14,10.56,26.83,21.6458077417084,66.37,863,88,64.86,14275.69,0,35.96,0,9.28,9.28,2.32,4.35,0,8.7259953,45.8806344
"Anno_2014","OSMATE",35.87,0,20.44,17.9349622848461,23.09,13.36,69.09,38.6996101015674,11.04,30,0,40.55,46,45.5,24.02,5.03,19.83,2.79,2.23,40.91,9.94,13.74,100,0,91.33,26,54.46,65.57,10.13,26.92,0,73.24,805,141,66.82,15799.04,1.19,55.59,1.24,6.18,12.35,-17.29,25,0,8.6571785,45.7910744
"Anno_2014","PORTO CERESIO",40.89,2.31,42.37,17.2223827908318,41.46,26.42,50.67,45.0458553258744,2.27,16.67,20,45.04,57.6,52.08,19.53,6.41,37.32,4.01,4.15,49.03,37.07,38.01,112.5,0,166.26,34.67,55.52,39.48,12.67,19.21,11.5805992455048,62.6346450861209,3004,252,60.28,9205.82,1.26,43.1,2.65,11.6,6.63,-2.98,17.81,12.077768036436,8.8994799,45.9042858
"Anno_2014","PORTO VALTRAVAGLIA",44.26,5.77,28.49,12.2542708545388,30.91,9.28,55.26,27.2613502079775,4.62,55.56,33.33,47.32,55,52.33,17.2,8.23,22.42,3.48,4.39,45.17,26.12,30.66,150,16.67,218.97,43.98,64.06,53.13,9.43,16.04,7.71130955034918,69.14,2391,158,60.08,13134.89,1.8,58.4,2.52,9.66,5.88,13.03,16.67,6.72687243742193,8.6765251,45.9607866
"Anno_2014","RANCIO VALCUVIA",47.89,0,27.65,15.649323344237,30.08,17.76,44.81,25.4677255077746,3.19,40,0,42.46,55.33,51.6,20.56,4.31,21.57,4.06,2.79,41.96,51.21,24.88,145.45,0,114.5,23.33,43.7,52.13,9.28,16.13,19.1145333020073,70.12,914,51,60.63,11040.4,0,79.43,11.97,10.88,5.44,-5.44,40,162.895826801276,8.7726131,45.9148009
"Anno_2014","RANCO",37.14,0,24.25,12.2072061136814,23.64,8.72,67.84,18.0888202471674,9.14,40,66.67,44.7,43.67,45.4,19.6,7.31,20.27,2.82,5.15,33.73,15.62,20.6,166.858272273902,0,152.88,34.56,57.16,58.75,11.17,38.3,38.4927304708047,74.29,1305,237,71.84,16101.33,2.2,42.54,0,9.12,8.36,-16.71,16.67,254.681555804392,8.34,45.48
"Anno_2014","SALTRIO",37.32,0,49.5,15.9396164348138,42.74,34.89,45.01,32.934393401504,2.32,22.22,25,44.28,55,54.56,21.17,4.87,43.37,3.75,2.56,57.92,32.9,33.84,233.33,0,157.91,30.37,49.61,31.08,6.95,25.14,11.2770012791748,64.2757135906976,3041,106,49.68,8015.9,0.73,36.78,0.99,6.57,7.55,-3.61,29.17,11.6779263887159,8.921527,45.8742234
"Anno_2014","SAMARATE",38.4,10.1,11.98,24.8934547783706,21.89,69.19,53.92,53.5094369472603,10.81,17.65,0,45.07,49.33,48,22.16,6.48,7.33,2.23,3.71,27.91,38.92,28.78,117.24,0,168.7,36.19,57.65,66.41,8.29,22.16,8.45662242106573,72.296659643599,16027,1178,67.6,15554.97,44.71,64.56,1.8,8.58,7.65,-5.41,28.66,7.40641632300893,8.7870324,45.6260364
"Anno_2014","SANGIANO",46.96,2.5,19.34,21.4343427042326,21.78,32.87,48.42,55.0474786101763,6.86,22.22,33.33,43.76,52.67,45.22,22.64,6.36,13.18,3.72,4.81,37.38,19.9,16.47,150,0,142.2,30.82,52.49,59.54,8.71,21.11,19.5440466295994,63.8,1520,147,64.62,13653.1,25.57,47.15,1.31,9.17,6.55,-6.55,20.75,2.71016878738607,8.6297777,45.8773993
"Anno_2014","SARONNO",38.96,16.37,14.52,40.8608810600005,21.41,348.72,70.93,28.4705327903697,14.59,20,28.57,45.55,60.14,48.64,20.15,6.66,9.85,2.89,4.01,31.31,43.75,43.32,124.24,1.21,176.39,38.9,60.95,65.98,11.8,41.22,7.80296957149843,68.2628413470972,39437,4611,70.74,19191.68,7.79,89.1,4.18,10.63,8.39,2.61,20.53,32.4539701824972,9.0359607,45.6242491
"Anno_2014","SESTO CALENDE",39.45,19.52,15.61,19.9977524571913,22.24,41.38,63.02,35.9707511094202,10.63,37.5,33.33,45.17,54.33,51.69,20.53,6.5,11.58,3.12,3.92,32.41,41.78,44.34,133.33,9.52,170.3,37.2,59.04,64.78,10.15,26.7,7.46345378114332,69.71,11121,1386,63.66,17124.95,9.12,85.41,1.9,9.75,8.49,9.39,24.88,7.15337425501687,8.6365972,45.7307015
"Anno_2014","SOLBIATE ARNO",36.65,3.98,11.75,37.7382297023264,20.54,122.58,54.74,36.7469601839253,15.21,27.27,40,43.67,48.4,41.64,22.74,7.06,7.29,2.95,3.99,28.95,48.62,32.68,163.64,18.18,140.3,30.17,51.68,66.69,10.99,22.89,0,72.33,4219,344,71.74,17571.11,0.7,78.85,2.6,6.61,9.68,-11.1,26.35,0,8.8165968,45.7207381
"Anno_2014","SOLBIATE OLONA",38.73,17.21,10.75,41.0555132216725,18.85,77.25,49.83,33.2050438586915,12.69,50,40,43.68,54.4,40.67,22.91,5.08,5.8,2.74,2.52,26.98,39.23,26.51,152.94,0,139.95,29.84,51.17,66.32,8.78,18.93,0,71.86,5564,250,61.35,16046.17,2.9,57.47,3.05,9.34,6.11,1.8,26.51,0,8.8829406,45.6551939
"Anno_2014","SOMMA LOMBARDO",42.05,9.25,11.58,29.3856761612983,21.11,45.5,53.19,36.7012401206223,8.45,15.79,20,44.28,51.8,53.89,21.79,7.01,8.68,3.34,3.56,32.17,53.04,38.2,131.18,2.15,156.5,34.04,55.79,67.42,10.68,20.47,9.52668069220493,69.0480026640273,17745,1934,49.53,15193.09,2.46,67.91,5.25,8.47,10.73,1.19,26.39,190.807943995124,8.7068019,45.6827443
"Anno_2014","SUMIRAGO",37.27,0,13.09,24.7003461056623,20.8,33.28,53.35,29.4305924112618,15.33,10,25,44.72,58,50,23.85,5.86,7.91,2.57,3.09,31.64,28.16,30.52,100,16.67,158.77,33.47,54.56,66.09,8.11,24.83,3.23497478735276,71.9536436689268,6221,328,73.28,16791.61,0.37,58.83,0.97,10.32,8.22,7.58,25.3,2.58252467177558,8.7812638,45.7386487
"Anno_2014","TAINO",39.26,22.8,15.52,20.3228421835316,23.04,30.53,63.16,58.6180553063195,11.7,36.36,20,44.4,39.8,44.27,22.56,7.15,12.15,3.45,4.62,30.04,16.92,23.59,200,0,146.98,35,58.81,63.23,12.06,27.1,5.37789653616337,74.38,3737,431,66.07,16758.52,6.34,59.05,1.07,6.95,6.41,-2.4,13.29,1053.62657948943,8.37,45.46
"Anno_2014","TERNATE",38.72,0,12.66,24.3738453106245,17.12,42.52,55.36,22.8061914624821,12.42,11.11,0,44.34,56.67,51.22,21.14,4.99,6.17,2.9,3.36,26.22,34.6,21.78,50,50,157.96,31.67,51.72,69.29,7.43,29.03,8.85243645393041,72.99,2542,114,65.16,16919.43,5.24,68.35,0.79,9.09,11.06,6.72,25.68,151.66194589006,8.42,45.47
"Anno_2014","TRADATE",39.67,7.08,15.55,21.0939384893939,22.41,67.19,61.94,37.5248932749814,11.23,7.14,33.33,44.39,52.33,48.29,22.4,7.62,9.68,3.46,4.83,29.37,44.78,42.09,149.37,0,151.61,35.11,58.27,63.74,10.18,28.21,4.01087170589909,69.6362744005678,18622,1502,71.28,16590.71,3.03,68.96,4.26,10.02,8.89,7.7,26.45,7.18010701465158,8.907067,45.7115434
"Anno_2014","TRAVEDONA",40.04,0.77,15.92,21.4304247271151,22.36,23.65,60.77,35.7206759172506,9.58,57.14,40,43.98,42.8,41.57,23.6,5.15,11.45,3.67,2.75,31.82,22.58,24.42,125,0,145.68,34.49,58.17,66.12,9.47,29.86,0,72.7,4067,271,69.93,15756.25,1.12,52.44,1.96,10.05,8.58,-5.39,22.22,0,8.6689263,45.808482
"Anno_2014","TRONZANO LAGO MAGGIORE",44.72,0,56.41,11.1189280080135,42.61,0.81,54.07,20.12208646226,2.21,11.11,0,47.05,56,41.44,13.45,9.24,53.78,3.36,7.56,54.29,30.53,7.58,100,0,258.33,36.05,50,27.63,10.78,0,6.7533016922704,71.28,241,37,65.07,6947.61,0,32.06,12.02,8.02,0,-60.12,0,0.804783464926733,8.7342613,46.0888028
"Anno_2014","UBOLDO",37.24,13.68,11.81,35.1724266634643,18.88,65.2,53.91,30.5359261404932,12.77,26.67,33.33,42.9,42.83,45.4,23.27,5.38,8.44,3.53,2.86,31.85,25.05,32.04,128.26,2.17,126.77,27.84,49.79,66.67,8.61,21.71,8.81603864187885,72.38,10561,878,63.05,16443.07,0.66,59.9,4.35,8.14,8.33,-1.42,24.04,151.276375885475,9.0043619,45.6142231
"Anno_2014","VALGANNA",44.51,2.3,34.12,18.175363519111,36.02,7.09,53.39,26.0397888994905,3.37,22.22,33.33,44.03,57,46.22,20.83,4.99,30.39,3.85,2.85,43.51,18.93,22.76,175,0,143.52,29.27,49.67,47.19,11.29,25.56,26.829632677221,68.11,1600,138,43.5,10297.53,0,51.49,7.54,11.93,16.95,4.4,16.67,6.0175259140808,8.8260516,45.9016399
"Anno_2014","VARANO BORGHI",40.54,0,13.3,20.9213856133274,16.76,51.92,58.01,37.9037983823806,11.08,33.33,25,44.84,49.25,52.89,19.93,7.33,8.04,1.79,4.74,33.12,26.47,22.77,133.33,0,163.4,35.44,57.12,66.64,9.36,21.26,22.4418529687956,73.06,2464,227,68.23,16496.01,3.51,62.68,1.21,9.64,7.23,-17.68,26.39,0,8.7030082,45.7676679
"Anno_2014","VARESE",40.04,16.01,18.73,40.9684467877859,24.38,165.55,68.22,29.37,11.72,3.85,10,46.39,42.9,47.73,18.27,7.58,12.55,2.69,4.25,34.43,47.83,59.85,131.23,0.48,204.36,40.9,60.92,61.25,12.32,38.23,6.29337003513134,68.5693758260732,80857,10070,57.01,18475.41,3.23,103.26,5.11,10.89,7.78,2.25,16.66,49.4366242153085,8.8250576,45.8205989
"Anno_2014","VEDANO OLONA",39.14,17.31,19.94,21.4537749045275,23.45,61.12,59.28,49.0545206778351,10.19,27.27,40,45.22,44,44.36,21.68,7.02,12.25,3.31,4.4,35.9,27.01,30.17,130,0,169.27,36.51,58.07,58.53,8.83,28.87,5.23302530263335,68.13,7372,430,70.68,14712.02,3.04,53.36,2.72,9.8,6.67,9.94,20.59,0,8.887207,45.7771725
"Anno_2014","VENEGONO INFERIORE",40.17,8.78,15.85,30.6818741398303,22.03,72.97,58.69,31.4565018523419,12.14,70,50,44.23,33.75,42.8,22.33,6.09,9.36,3.34,3.18,30.71,30.89,28.76,133.33,0,153.03,32.88,54.37,61.75,9.82,28.01,5.55756755703356,69.43,6142,367,61.11,16132.87,0.56,63.06,2.44,7.48,8.13,-4.23,30.35,16.7117751249676,8.8906933,45.734056
"Anno_2014","VENEGONO SUPERIORE",40.17,0,19.3,23.3840869644009,22.5,64,56.49,39.724991668445,8.9,40,20,43.97,58,58.5,22.63,5.76,12.68,3.46,3.33,37.15,43.27,28.32,140,0,149.95,32.67,54.46,58.64,9.11,23.96,8.77437106660398,71.2870250694113,7277,486,63.57,15261.27,56.22,55.53,1.38,7.17,9.09,3.44,26.86,0,8.9017558,45.7547651
"Anno_2014","VERGIATE",40.31,15.53,12.02,25.0845054018157,21.36,33.51,54.52,47.1461924231533,11.54,36.36,20,45.23,44,47.82,21.07,6.45,7.71,2.47,3.81,29.86,37.28,36.31,140,3.33,166.69,36.35,58.16,68.46,8.82,20.95,6.87915391387729,70.0694795384239,8910,517,70.47,16598.93,35.46,74.69,3.36,9.41,7.17,-2.24,26.38,6.37191867351185,8.6942453,45.7217289
"Anno_2014","VIGGIÙ",39.03,13.17,44.42,16.2689154160291,37.52,23.86,48.59,40.1713739340525,2.22,33.33,40,44.56,38.6,46.58,21.47,5.16,38,4.3,2.36,50.87,19.98,27.49,157.14,0,163.29,33.27,53.64,37.31,9.75,22.82,24.1631982733773,61.99,5308,216,52.42,8638.12,0.85,38.54,1.32,10.58,7.56,8.5,19.77,32.0524090091616,8.908244,45.8699877
"Anno_2014","VIZZOLA TICINO",41.96,11.43,14.49,29.0968414709614,19.26,8.02,66.25,41.0346822821245,10.38,12.5,0,43.34,43.67,40.12,20.79,5.02,10.04,3.23,2.51,19.05,70.57,14.41,142.86,0,143.21,27.68,47.02,69.75,6.99,14.71,6.84808222574665,73.58,575,30,54.52,18468.65,16.82,67.17,11.75,3.36,6.72,-72.21,29.41,0,8.6829486,45.6261799
"Anno_2015","AGRA",34.66,6.25,45.61,9.48,1086.5,7.15,66.84,4.76,2.79,16.67,33.33,48.24,64.33,52.33,17.11,6.95,40.64,4.28,2.67,51.06,17.5,26.52,116.61325208919,0,269.77,51.1,70.04,36.57,16.28,22.58,0,58.3993232658105,397,54,68.31,9716.29,0,48.53,0,7.66,12.77,22.99,18.18,0,8.46,46.02
"Anno_2015","ALBIZZATE",35.2,7.52,15.7,34.82,8.25,85.78,58.39,35.57,11.91,27.27,20,44.84,50.8,56.27,20.66,7.93,6.95,2.15,5.06,26.55,30.23,24.38,171.43,0,167.26,35.7,57.05,64.56,11.45,28.62,0,59.6850362722399,5341,388,73.11,17307.55,0.65,56.5,1.31,8.98,9.35,-1.87,36.04,0,8.802844,45.7209114
"Anno_2015","ANGERA",37.14,16.81,19.4,14.67,1.93,26.46,63.76,40.29,7.9,36.36,40,47.58,43.8,44.55,17.83,8.64,12.63,2.31,4.85,32.92,32.25,37.54,100,0,217.9,44.92,65.53,61.47,15.31,34.27,35.67,60.4822685034424,5607,574,62.44,16706.29,5.16,77.98,0.89,11.19,4.62,-1.6,27.2,1030.85,8.5813265,45.7735988
"Anno_2015","ARCISATE",34.47,14.14,32.09,23.87,7.11,48.24,51.25,39.86,4.6,36.36,40,43.72,49.8,41.55,23.54,6.07,22.78,3.91,3.21,39.79,24.08,34.79,110.53,0,143.16,31.61,53.69,49.1,11.97,20.27,0,59.1763113335091,9975,554,69.66,11946.02,1.98,53.25,1.91,8.12,10.03,-1.1,32.42,0,8.8594086,45.860249
"Anno_2015","ARSAGO SEPRIO",32.56,50.92,13.92,18.14,15.53,33.89,52.52,41.17,8.83,27.27,20,43.86,49,44.82,23.09,4.68,6.63,2.77,2.72,28.71,27.78,27.41,138.46,0,137.52,30.34,52.4,67.69,9.94,24.13,20.17,62.0781644876313,4957,320,73.32,15996.76,1.06,65.39,2.62,10.09,10.49,0.4,39.29,15.86,8.7359732,45.6893366
"Anno_2015","AZZATE",32.93,14.1,16.44,22.85,3.31,89.65,67.55,31.33,13.2,14.29,25,43.92,53.5,49.86,22.43,6.88,9.42,2.79,3.79,29.08,32.18,25.23,137.5,0,141.67,33.15,56.56,65.72,10.53,33.91,0,59.9061881416561,4648,310,72.83,18111.66,0.72,80.4,1.72,7.74,8.17,-2.15,31.65,0,8.798926,45.7775012
"Anno_2015","AZZIO",42.83,0,19.83,17.53,53.36,22.56,54.23,24,10.94,40,0,44.04,50,38.7,24,5.23,10.46,1.23,3.08,34.31,28.98,25.71,135.443292048496,0,139.5,32.55,55.88,60.37,13.92,21.21,0,68.2855774456484,796,54,78.55,14542.3,3.59,51.54,0,3.77,12.57,-7.54,21.21,0,8.7072542,45.8867461
"Anno_2015","BARASSO",33.12,0,17.71,15.79,8.28,32.12,68.95,59.82,18.81,33.33,50,48.7,51,48.44,18.58,7.65,9.97,2.19,3.96,32.52,35.43,14.85,157.14,0,230.35,46.3,66.4,65.04,11.66,45.76,0,64.7951846474785,1656,128,63.9,21582.48,0.65,72.29,4.22,19.28,6.63,7.83,15.91,0,8.7569186,45.8400911
"Anno_2015","BARDELLO",35.95,0,13.11,20.02,84.83,37.76,55.83,48.31,10.43,42.86,0,43.75,62.33,48.43,27.16,5.59,7.83,2.56,3.35,25,33.71,19.5,150,0,136.82,36.43,63.05,68.63,12.09,20,0,64.8130777303099,1582,138,72.78,15473.37,0.87,56.29,1.27,9.49,6.33,4.43,27.12,0,8.6981446,45.8348116
"Anno_2015","BEDERO VALCUVIA",37.39,4.17,32.04,14.07,10.77,16.38,61.19,8.11,4.87,50,33.33,43.29,51.67,47.9,19.67,5.67,21,2.67,3,31.87,20,22.22,121.311327972705,0,124.75,28.64,51.59,52.72,10.31,28.21,0,61.5534918493248,671,52,46.78,13711.4,0.85,59.79,0,10.46,5.98,10.46,22.22,0,8.7942706,45.9114218
"Anno_2015","BESANO",35.62,1.82,44.24,19.62,169.97,25.35,47.71,14.47,3.09,22.22,25,43.99,60.75,57.22,23.28,5.56,34.87,3.49,2.83,47.03,12.2,24.42,150,0,145.5,31.77,53.6,39.7,12.48,12.33,39.31,58.9365239405661,2544,79,54.81,9734.83,1.24,31.6,1.56,12.1,7.41,-10.14,38.78,123.82,8.8885435,45.8882638
"Anno_2015","BESNATE",32.11,11.76,11.74,21.91,7.91,57.11,59.91,37.38,12.58,27.27,40,44.7,52.6,55.27,22.7,6.21,6.12,2.26,3.52,26.81,26.52,29.74,166.67,0,152.26,35.56,58.92,69.68,9.66,28.25,0,60.0047258458915,5554,255,73.73,16959.76,1.92,71.27,1.62,12.06,7.92,3.24,28.95,0,8.7650437,45.6983694
"Anno_2015","BESOZZO",37.43,0.49,20.9,21.96,1.26,49.84,57.14,72.97,8.81,30,0,44.79,45.8,45.1,22.66,6.85,13.04,3.27,4.14,33.65,32.35,29.53,121.43,0,156.26,34.29,56.23,59.48,13.06,30.12,0,56.6381288943728,9106,971,67.3,15109.76,1.28,68.04,1.53,11.07,5.81,0.55,31.1,0,8.6708467,45.8435928
"Anno_2015","BIANDRONNO",36.34,1.16,16.39,11.55,17.87,18.28,53.48,12.08,10.29,33.33,60,44.94,56.8,51.67,21.65,5.12,7.47,2.42,2.9,27.14,58.49,27.44,150,0,161.47,35.56,57.58,64.56,11.36,29.71,0,58.2925363768841,3347,208,71.31,16388.38,3.52,46.25,0.59,9.19,5.34,-11.56,30.36,0,8.7173149,45.814342
"Anno_2015","BISUSCHIO",34.93,0,36.77,17.78,22.59,28.02,48.91,55.18,3.95,16.67,40,43.7,56.6,51.67,23.13,5.18,25.04,4.11,2.53,43.77,46.18,35.02,161.54,0,141.41,31.1,53.09,43.3,11.25,19.03,22.96,62.7756684620728,4355,174,65.87,11069.76,8.43,42.8,2.99,7.36,8.97,2.53,31.33,54.79,8.8711869,45.8740202
"Anno_2015","BODIO LOMNAGO",31.9,0,14.59,22.69,7.29,40.86,70.31,41.52,19.71,33.33,33.33,45.53,44.67,54.56,23.03,5.9,8.8,3.47,2.31,34.89,45.46,22.23,175,0,172.43,38.62,61.01,65.26,10.74,32.32,0,64.6176190337813,2151,141,73.58,21412.02,3.29,69.06,1.85,11.59,6.49,-0.93,18.18,0,8.7512433,45.7896373
"Anno_2015","BREBBIA",40.66,0,18.47,21.31,12.73,38.44,56.05,48.65,7,27.27,20,46.28,58.2,51.27,18.39,6.86,10.25,2.33,4.03,34.05,41.37,27.69,122.22,0,200.49,39.31,58.91,62.21,12.01,28.99,0,61.5533441581259,3254,267,67.11,15609.38,1.03,72.25,2.74,13.41,6.71,-9.45,33.03,0,8.6491857,45.8286234
"Anno_2015","BREGANO",32.96,0,17.05,14.21,17.68,15.27,59.15,39.44,7.96,20,0,42.77,54.67,46.7,26,6.29,11.14,2.57,3.14,33.87,3.95,7.14,101.413739186479,0,119.84,26.03,47.76,61.95,12.24,25.45,0,62.9029733634326,855,62,68.55,14366.46,0,39.72,0,14.02,5.84,5.84,37.5,0,8.6901545,45.8253891
"Anno_2015","BRENTA",43.2,0,21.24,13.12,77.69,17.46,45.43,5.13,5.9,42.86,50,43.82,61.5,50.29,21.88,5.57,13.45,3.4,3.26,36.24,9.91,14.67,175,0,147.56,30.66,51.44,59.25,10.57,21.52,0,63.7603891565753,1747,131,78.98,13384.49,0.91,39.55,2.26,5.65,5.65,-25.99,45.28,0,11.7546071,45.6142737
"Anno_2015","BREZZO DI BEDERO",35.72,4,35.6,8.59,6.08,5.12,63.25,41.61,6.85,23.0416602188154,39.0112937491688,44.09,55.2843016266655,49.7586201211225,22.84,4.6,29.65,3.31,3.5,41.71,22.24,11.84,200,0,138.76,31.63,54.42,45.01,9.8,21.43,0,65.34,1213,113,63.65,13852.15,3.15,40.51,0.83,9.92,6.61,9.09,27.1320707819181,0,8.7090126,45.9777526
"Anno_2015","BRINZIO",39.15,0,18.38,5.64,434.23,7.19,63.82,4.08,9.04,33.33,66.67,45.7,40,34,19.72,9.01,10.7,2.82,3.66,30.16,16.61,21.38,100,0,169.23,37.36,59.43,63.29,13.41,29.27,118.06,67.5218927022703,847,36,68.8,15938.38,0,53.19,2.36,11.82,9.46,4.73,41.38,196.81,8.7952571,45.8872668
"Anno_2015","BRISSAGO",36.4,4.88,38.11,8.25,42.65,9.15,48.65,4.55,2.79,16.67,33.33,42.27,48.67,54,24.49,4.08,28.78,5.31,2.45,46.84,58.17,13.81,120.015393984639,0,117.74,25,46.23,41.78,14.87,16,0,63.9075435826143,1263,75,67.92,10152.17,0.33,40.09,0,6.29,7.08,-14.94,28.57,0,8.7112657,46.1200438
"Anno_2015","BRUNELLO",26.46,0,15.33,28.74,11.37,63.58,63.37,28.72,13.91,33.33,33.33,43.02,60.33,41.33,25.19,4.37,6.17,3.86,1.8,23.17,66.93,14.58,150,0,129.61,30.83,54.62,66.55,8.87,34.62,0,63.5044756837328,984,40,72.92,18067.36,0.5,79.11,2.03,5.07,5.07,-4.06,35.71,0,8.45,45.45
"Anno_2015","BRUSIMPIANO",33.71,0,58.15,6.88,66.82,5.76,55.09,13.64,4.18,50,33.33,42.77,46.33,49.9,21.03,5.72,43.54,3.32,3.32,57.92,22.47,31.83,120,0,124.62,31.79,57.31,32.81,14.57,18.57,0,59.1964078230486,1194,104,49.93,9754.37,0,23.96,4.13,9.09,10.74,-28.91,18.18,0,8.8893022,45.9493372
"Anno_2015","BUGUGGIATE",33.79,0,15.29,28.51,24.71,81.05,64.68,20.85,17.09,27.27,50,46.18,47,46.64,21.21,7.3,6.53,1.84,3.54,29.87,39.28,23.29,137.5,0,174.21,40.81,64.23,64.5,8.93,42.86,0,67.1026629996072,3060,83,73.1,19041.56,3.3,59.75,2.6,10.39,6.49,-8.77,32.18,0,8.8078178,45.7792042
"Anno_2015","BUSTO ARSIZIO",35.2,18.36,15.94,48.79,0.18,265.13,62.63,6.01,10.43,9.52,14.29,45.43,56,54.1,20.49,7.09,8.71,2.84,4.05,29.12,33.86,48,130.97,1.42,174.36,37.58,59.13,65.08,12.58,31.32,3.61,56.0814971592699,83106,7725,62.14,17551.28,3.56,91.45,4.25,10.65,8.54,9.21,31.18,21,8.8531265,45.611892
"Anno_2015","CADEGLIANO",42.68,5.52,61.8,7.18,27.66,4.87,45.35,20.45,1.58,0,0,42.88,56.75,52.75,23.32,5.16,50.67,5.38,3.14,61.77,25.06,23.79,100,20,133.12,31.53,55.22,27.77,14.78,11.49,0,57.7053834573912,2125,192,54.41,6660.95,0.66,22.74,2.37,17.05,14.68,15.63,25.81,0,8.8406445,45.9670016
"Anno_2015","CADREZZATE",40.35,0,18.73,19.19,8.27,33.42,59.52,61.98,8.9,30,33.33,43.99,41.33,38.8,23.78,6.57,14.32,3.68,3.94,37.17,35.71,29.39,100,0,138.32,31.82,54.83,60.98,12.7,32.67,0,70.2083755534369,1817,226,69.5,14465.39,0.97,81.94,0.55,11.47,10.38,-13.66,27.54,0,8.6436417,45.7971265
"Anno_2015","CAIRATE",35.66,23.65,12.7,26.38,16.74,43.68,49.6,45.27,9.26,22.22,0,44.52,42.2,46.22,23.3,6.68,6.2,2.16,3.5,28.79,24.54,25.59,143.48,0,156.91,35.2,57.63,65.95,10.38,24.07,0,55.9957100201032,7827,383,68.77,15254.48,1.71,58.84,2.93,10.19,8.28,-4.46,41.25,0,8.8533919,45.6892634
"Anno_2015","CANTELLO",33.24,0.87,41.32,19.95,1.59,29.67,57.46,44.94,4.84,27.27,40,44.68,58.6,53.91,22.38,6.23,30.94,3.7,3.39,42.76,31.44,36.44,128.57,0,159.35,34.3,55.82,42.87,11.21,25.91,0,57.4704796448777,4728,208,58.19,11671.14,0.43,51.85,2.97,14.66,7.22,16.79,31.63,0,8.8959612,45.820969
"Anno_2015","CARAVATE",41.33,1.42,21.98,26.68,147.4,29.45,45.39,43.55,6.03,20,33.33,44.22,45,43.8,23.19,6.16,11.84,4.11,2.94,30.9,32.1,27.25,100,0,145.72,32.77,55.26,58.47,11.73,17.05,0,57.8788500655681,2563,122,70.56,13538.91,3.39,55.98,0.39,10.88,5.83,-2.33,31.65,0,8.6481809,45.8755043
"Anno_2015","CARDANO AL CAMPO",34.63,12.91,12.85,42.58,2.98,104.67,58.96,27.4,8.84,37.5,33.33,43.22,43.17,47.88,23.1,5.61,8.05,3.13,3.21,27.34,25.73,25.86,132,0,131.91,30.67,53.92,69.21,10.41,24.34,0,59.3530635804796,14789,1132,64.21,16552.04,2.08,60.75,1.69,7.08,10.52,-9.24,37.24,0,8.7716745,45.6455568
"Anno_2015","CARNAGO",30.43,11.83,13.1,27.65,1.65,70.33,55.6,25.91,10.91,54.55,40,43.04,41.4,41,25.18,6.02,6.42,2.81,3.06,29.07,22.2,21.33,150,0,124.12,30.2,54.53,67.25,11.38,19.18,0,59.2640263990613,6630,285,73.36,16383.01,2.09,61.69,0.9,8.88,8.13,-4.06,29.28,0,8.8412482,45.7225464
"Anno_2015","CARONNO PERTUSELLA",32.08,7.66,12.04,50.35,3.49,148.45,60.29,22.15,12.1,31.25,50,41.62,57.33,47.5,25.91,4.44,7.2,3.17,2.56,29.9,33.79,28.16,143.59,7.69,107.96,26.34,50.74,70.32,10.53,22.75,0,59.9996659745086,17525,1224,70.63,17018.17,8.09,63.53,2.23,7.56,11.29,4.3,35.9,0,9.0450399,45.5985076
"Anno_2015","CARONNO VARESINO",37.17,0,15.08,22.31,15.58,47.31,52.03,30.91,11.63,25,40,44.66,54,50.5,22.06,6.07,7.24,2.72,3.3,27.26,19.41,24.3,187.5,0,154.7,34.31,56.49,65.59,11.09,23.1,0,59.9792460220843,4952,262,70.07,16558.08,1.42,52.5,1.62,7.87,5.86,1.82,31.33,0,8.8337635,45.7384928
"Anno_2015","CASALE LITTA",37,0,14.41,11.88,5.6,16.15,52.34,9.64,10.44,12.5,0,43.81,53.5,55,23.8,7.02,7.82,3.64,4,29.18,30.79,22.38,100,0,133.82,32.26,56.36,66.07,9.79,31.75,0,60.6611444895792,2690,131,73.73,15820.12,2.91,58.63,1.87,8.22,8.59,8.59,42.86,0,8.7419745,45.766703
"Anno_2015","CASALZUIGNO",42.96,0,29.88,8.45,33.56,8.19,50.36,4.9,3.97,0,0,45.02,73.33,51.3,22.64,7.09,20.1,3.55,3.89,31.84,15.46,10.94,120,0,171.35,35.76,56.62,52.68,13.93,19.3,72.57,63.6472923241644,1378,106,68.95,12259.73,0.88,40.53,3.68,11.79,11.05,31.69,25,1550.44,8.7003577,45.9113229
"Anno_2015","CASCIAGO",30.88,0,16.43,27.17,3.71,67.24,70.64,29.26,19.44,25,25,46.42,48,44.17,19.51,8.17,7.84,1.81,4.34,30.34,30.7,24.1,100,0,199.39,41.02,61.59,63.28,11.46,45.65,0,67.0881552365075,3809,209,65.69,20468.12,4.37,67.71,1.31,12.03,6.54,-2.88,22.22,0,8.7816865,45.8333727
"Anno_2015","CASORATE SEMPIONE",32.65,11.8,11.99,24.34,21.75,55,59.9,37.42,10.43,25,40,44.23,53.4,54.33,23.02,5.5,6.74,2.89,2.81,27.09,21.47,24.19,211.11,0,145.28,32.84,55.44,69.75,11.82,23.88,0,52.12,5699,359,67.15,16426.81,1.75,60.58,1.57,12.57,9.6,-6.98,30.7,0,8.7400762,45.6741436
"Anno_2015","CASSANO MAGNAGO",34.93,24.49,13.34,45.8,0.3,133.18,53.31,45.67,8.76,21.43,16.67,44.69,48.67,49.79,21.66,6.96,6.81,2.44,3.89,27.38,26.56,31.36,141.67,2.78,160.79,34.89,56.59,66.25,11.31,23.83,0,56.0933528668996,21622,1413,78.05,15670.19,2.52,70.58,3.33,10.25,7.3,0.42,33.56,0,8.8272627,45.6717299
"Anno_2015","CASSANO VALCUVIA",41.29,0,38.62,9.1,668.83,4.8,52.47,17.65,4.34,55.56,0,43.42,40.75,47.56,24.1,6.47,22.3,4.68,4.68,51.65,20.41,4.46,118.051174164656,3.34789614439906,131.86,36.88,64.85,42.93,12.88,18.75,150.6,63.8185639246019,664,49,76.72,10898.15,0,24.06,0,10.53,12.03,-4.51,37.5,86.14,8.7661257,45.9350163
"Anno_2015","CASTELLANZA",34.42,22.94,15.91,48.84,3,179.36,61.47,39.93,10.3,12.5,0,47.18,51.67,53.75,17.92,7.51,7.9,2.27,4.41,30.03,54.38,29.67,140.54,1.35,222.72,42.37,61.39,64.47,12.03,31.18,7,54.2681833258171,14295,1075,67.29,17667.05,1.53,79.07,5.17,10.2,6.78,0.42,32.68,13.99,8.8915002,45.6053912
"Anno_2015","CASTELLO CABIAGLIO",37.18,0,20.97,3.29,18.8,5.16,65.97,8.33,7.66,44.44,25,43.93,34.5,35.44,19.38,5.81,15.5,1.16,2.71,35.71,11.67,15.72,0,100,136.71,27.34,47.34,61.96,10.26,42.86,0,63.9620269963816,581,39,71.41,16267.11,4.05,60.19,1.72,8.6,6.88,0,42.86,0,8.756608,45.8915422
"Anno_2015","CASTELSEPRIO",33.63,0,13.23,19.92,44.59,30.66,61.63,44.09,14.75,44.44,66.67,45.57,42,44.67,19.82,7.08,7.26,2.3,4.6,27.17,32.47,23.06,100,0,166.09,34.45,55.18,67.38,8.62,32.31,76.51,71.2244689467328,1307,14,75.06,17866,1.6,75.89,0.77,11.5,6.13,9.2,38.46,1286.99,8.8627608,45.7168947
"Anno_2015","CASTELVECCANA",41.33,4.35,35.91,5.83,40.56,3.61,58.48,12.5,4.85,33.33,0,46.41,62.67,56.56,18.18,8.03,24.84,2.43,5.71,42.81,20.58,29.22,150,16.67,187.11,38.05,58.38,47.29,15.46,22.47,0,59.5807495719316,1999,135,64.25,13434.08,0.59,35.56,3.01,14.02,5.51,11.02,24.64,0,8.6617788,45.9471992
"Anno_2015","CASTIGLIONE OLONA",35.61,13.97,17.3,32.19,2.01,73.76,53.02,36.42,10.23,41.67,40,44.9,57.6,53.67,20.7,6.97,8.73,2.34,4.2,31.79,32.51,30.64,119.05,0,163.3,34.31,55.33,62.07,10.89,21.96,25.8,58.7456506313555,7753,400,73.03,15719.66,1.32,62.17,2.71,8.38,7.09,1.16,37.96,246.1,8.8714098,45.7526423
"Anno_2015","CASTRONNO",32.82,0,13.28,33.92,7.8,87.25,57.12,28.68,11.8,60,60,43.93,46.6,39.7,21.93,5.86,7.28,2.2,3.21,26.31,27.2,23.39,125,0,144.12,31.42,53.22,65.78,11.43,28.26,0,63.1546930258141,5268,286,73.73,16439.8,1.94,57.01,2.28,7.41,5.89,3.61,32.34,0,8.8119097,45.7477175
"Anno_2015","CAVARIA CON PREMEZZO",33.7,9.12,13.72,47.42,2.52,121.47,53.61,52.67,11.75,50,40,42.95,54.2,48.25,24.21,5.65,8.2,3.5,2.93,29.22,32.43,25.43,140,0,129.95,28.96,51.25,65.94,10.94,28.34,0,62.0675649848783,5819,651,73.06,15694.21,1.82,64.77,1.72,9.1,9.96,-1.55,32.2,0,8.8029492,45.6946472
"Anno_2015","CAZZAGO BRABBIA",40.87,0,16.67,9.21,156.44,16.48,60.32,54.62,7.23,33.33,25,44.78,50.75,47.78,22.69,8.36,6.87,1.19,5.37,24.04,33.28,20.67,100,0,161.74,36.19,58.56,64.51,11.62,37.78,0,65.1163555516509,827,39,73.73,15511.76,0,73.08,1.22,17.05,8.53,23.14,18.18,0,8.7348481,45.7958669
"Anno_2015","CISLAGO",34.11,0.33,13.45,28.17,0.64,62.42,56.98,33.52,11.1,22.22,25,43.11,47.75,46.89,23.57,6.03,7.12,3.38,3.38,31.71,18.86,27.11,135.71,0,127.36,28.92,51.62,64.01,10.8,26.25,0,56.7335320859723,10329,908,65.88,16309.1,2.5,63.19,1.36,7.57,8.44,4.17,35.56,0,8.9740024,45.660827
"Anno_2015","CITTIGLIO",41.07,1,20.45,12.89,94.77,21.97,51.14,32.32,5.63,25,20,45.2,49.6,55.33,20.52,7.74,12.13,3.58,4.87,31.99,27.22,24.13,154.55,9.09,169.13,35.8,56.96,59.69,12.77,18.82,25.25,58.3789312030893,3960,334,68.01,14420.18,0.6,56.95,2.76,12.29,7.28,-8.03,31.4,2.53,8.6589791,45.9096911
"Anno_2015","CLIVIO",34.13,0,56.02,17.85,29.4,31.5,50.61,35.14,1.83,42.86,40,44.61,46.8,45.14,20.61,4.68,45.55,3.16,2.58,56.76,23.15,26.3,130.20128820241,0,168,32.38,51.66,30.76,11.34,16.67,0,59.1851107797869,1980,40,62.57,7575.91,0.72,45.1,0,4.56,7.09,4.05,23.08,0,8.9309469,45.8642658
"Anno_2015","COCQUIO",40.83,0.81,17.81,18.69,2.31,38.96,51.64,41.87,6.42,36.36,0,45.86,60.5,52.09,21.7,7.68,9.83,3.49,4.49,35.71,25.74,25.53,123.08,15.38,176.34,39.37,61.69,62.06,11.93,24.36,21.09,56.2391849500414,4742,384,65.09,14954.74,3.29,75.69,2.74,8.86,5.9,2.53,31.65,31.63,8.6974484,45.8636801
"Anno_2015","COMABBIO",35.26,0,17.19,14.11,53.16,16.43,63.9,41.77,11.74,20,66.67,44.29,53,50.3,21.51,5.66,9.62,2.08,3.58,30.97,28.66,17.01,175.46310335335,0,144.44,31.88,53.95,65.31,13.1,28.57,0,65.2605968018644,1164,78,59.96,18271.4,0.82,63.64,0,5.23,10.46,24.41,22.73,0,8.6747718,45.7699832
"Anno_2015","COMERIO",31.81,0,18.26,13.4,27.79,29.19,72.23,37.95,19.79,11.11,0,44.47,53.25,48.78,21.52,6.53,10.22,3.27,2.93,32.79,41.55,22.25,160,0,152.44,32.91,54.5,63.33,10.57,43.21,0,61.5016962583049,2803,283,70.41,20047.4,0.25,54.41,1.79,12.89,12.53,7.16,29.49,0,8.44,45.5
"Anno_2015","CREMENAGA",41.99,4,67.6,5.64,27.95,4.83,46.75,21.28,0.73,11.11,33.33,42.53,55.67,49,21.7,4.99,54.55,4.99,2.35,60.69,15.73,10.53,150,0,131.9,28.39,49.91,20.04,14.56,13.33,0,62.5046415853442,804,47,68.74,5704.54,0,24.81,2.48,13.65,12.41,-3.72,50,0,8.8042188,45.9900624
"Anno_2015","CROSIO DELLA VALLE",38.25,0,10.93,26.98,67.74,39.56,55.26,42.11,18.48,33.33,33.33,45.1,47,39,20.15,6.46,5.32,1.52,2.28,29.55,60.12,12.09,100,0,169.23,32.67,51.98,65.56,12.1,30,0,65.0004652618622,617,15,73.73,18858.86,1.06,76.36,1.62,8.12,8.12,4.87,23.81,0,8.7698406,45.7595349
"Anno_2015","CUASSO AL MONTE",38.61,0,45.38,7.38,4.91,6.74,51.28,16.15,3.11,23.1220779167703,33.7122993052488,42.92,58.0583420589425,53.9983915133748,23.06,5.64,33.73,4.71,3.53,46.84,15.97,26.71,100,0,124.82,28.05,50.52,40.14,10.18,17.83,0,59.8868311159733,3612,160,60.21,10339.54,1.12,28.67,0.55,9.92,12.68,-11.58,29.17,0,8.8802614,45.9157789
"Anno_2015","CUGLIATE",34.4,4.85,49.45,13.21,59.36,15.43,44.12,74.32,1.46,44.44,0,42.2,43.25,49,24.44,4.92,44.19,5.08,2.5,56.41,11.64,19.58,133.33,0,119.3,27.99,51.45,32.56,13.98,20.81,0,62.7767502890217,3114,194,66.41,7224,2.24,30.04,2.88,8.95,6.71,-7.35,26.53,0,8.8198314,45.9476392
"Anno_2015","CUNARDO",39.44,4.73,41.29,14.93,2.85,28.72,49.9,68.88,2.4,10,33.33,42.32,54.33,42.9,24.57,6.35,34.62,4.78,3.54,48.62,37.93,39.45,150,12.5,118.26,29.03,53.57,41.52,13.58,19.11,0,59.6503083739092,2934,275,66.49,9161.55,0.63,54.41,2.72,10.88,8.5,-2.04,35.48,0,8.8035234,45.9344162
"Anno_2015","CURIGLIA CON MONTEVIASCO",44,0,55.93,2.08,2575,0.83,42.72,7.69,0.27,40,33.33,50.38,62.33,40.9,7.92,8.91,31.68,2.97,7.92,55.17,16.42,37.5,109.90575436344,3.28365377788692,391.67,39.83,50,34.78,20,37.5,0,57.0474654974692,182,8,47.33,8684.82,0,50.14,0,16.71,11.14,33.43,33.33,0,8.8296953,46.0644588
"Anno_2015","CUVEGLIO",40.56,1.23,29.5,13.81,14.64,35.21,46.98,19.49,3.96,30,20,43.59,52.6,49.5,24.01,4.66,19.84,3.95,2.68,42.07,31.72,29.82,125,0,133.88,28.75,50.22,51.49,10.9,19.05,29.39,59.5203406311483,3402,248,70.09,12353.43,3.64,71.45,2.34,13.76,9.08,-2.93,37.8,10.41,8.7332138,45.9044147
"Anno_2015","CUVIO",43.84,0,27.18,11.77,7.19,13.76,48.78,28.3,3.54,33.33,0,45.09,60,55.89,22.8,6.23,19.12,2.83,3.97,41.53,47.44,25.19,150,16.67,167.09,37.27,59.58,54.79,12.41,22.22,0,59.6048818484631,1680,146,71.37,12155.52,0.29,46.51,3.58,11.93,7.75,7.75,33.33,0,8.7340387,45.8977202
"Anno_2015","DAVERIO",32.38,0,13.14,29.12,19.98,55.16,59.8,34.76,14.37,25,25,43.39,52.25,48,24.31,6.38,7.35,2.34,3.23,29.16,49.85,25.87,100,0,129.74,29.38,52.03,66.24,9.96,26.71,0,62.2988610129369,3113,144,73.02,17289.1,0.61,61.66,0.64,8.03,7.39,0,31.25,0,8.7741363,45.7717534
"Anno_2015","DUMENZA",42.16,6.25,47.81,4.17,62.26,2.61,52.07,20.54,1.67,55.56,0,45.24,49.33,50.11,21.19,5.64,32.77,4.12,3.81,50.28,17.93,30.51,120.937576591515,0,158.94,34.6,56.36,38.16,13.11,20.99,0,57.0650740846833,1458,70,67.15,9371.14,2.96,31.24,0,10.19,9.51,-19.02,28,0,8.7877672,46.0185192
"Anno_2015","DUNO",45.65,0,28.3,6.7,104.81,2.41,59.49,22.22,4.45,11.11,25,47.21,71.5,61.11,12.35,7.41,22.22,2.47,4.94,33.33,2.99,10.77,138.974639834103,3.33966265051503,166.67,32.26,51.61,51.11,12.24,0,0,66.7677289855161,138,4,61.01,15234.09,0,43.01,0,7.17,0,-14.34,33.33,0,8.44,45.55
"Anno_2015","FAGNANO OLONA",34.22,10.24,12.67,43.76,3.38,95.38,53.56,29.6,12.19,33.33,33.33,43.6,57.67,44.67,24.51,6.84,6.92,3.46,3.54,27.81,22.18,27.45,153.12,9.38,139.3,32.99,56.67,67.08,11.29,22.79,0,58.6175410882783,12440,832,65.26,16122.78,0.5,62.07,2.58,10.65,12.91,5.89,38.01,0,8.866763,45.66834
"Anno_2015","FERNO",36.19,14.4,13.65,51.46,2.11,54.52,47.88,31.52,7.97,22.22,20,43.23,56.6,46.44,24.39,6.05,6.42,2.61,3.23,26.9,50.72,25.18,137.5,0,136.9,30.84,53.37,66.21,10.41,17.78,0,56.7200354160522,6907,538,62.22,14731.12,0.18,54.32,2.31,9.25,9.53,-4.62,42.86,0,8.45,45.37
"Anno_2015","FERRERA DI VARESE",42.04,3.77,42.52,17.73,250.82,22.93,41.45,8.33,2.59,33.33,33.33,41.65,54.67,49.33,26.37,4.79,34.93,5.82,2.74,45.87,10.41,8.45,150,0,112.5,29.67,56.04,39.49,12.43,20,0,62.8241801420349,725,30,78.31,9265.29,0,44.6,2.79,8.36,12.54,16.72,30,0,8.7871838,45.9314438
"Anno_2015","GALLARATE",35.99,16.93,18.46,54.17,0.12,298.96,63.42,15.46,10.09,9.52,25,44.24,57.5,52.95,21.28,6.49,11.57,3.45,3.69,32.46,45.61,45.27,132.42,1.37,153.19,34.68,57.32,63.5,12.67,33.31,5.62,57.0590287576721,53343,8381,65.4,17311.8,2.96,107.31,5.52,10.15,9.68,9.76,33.6,90.64,8.7921269,45.6623632
"Anno_2015","GALLIATE LOMBARDO",33.09,0,13.2,10.5,362.68,27.18,74.59,50.32,32.76,50,100,43.16,48,58.17,22.72,4.2,6.91,2.22,2.22,19.08,38.22,12.6,100,0,117.9,30.51,56.39,68.96,8.64,51.22,0,65.7152094268833,986,21,73.33,23511.6,6.79,82.44,1.02,7.12,7.12,7.12,40,0,8.7706383,45.7887405
"Anno_2015","GAVIRATE",34.11,0.42,18.21,23.27,4.7,64.87,64.17,55.73,11.59,36.36,40,46.12,51.4,50,19.01,7.63,10.22,2.51,3.94,32.97,46.54,32.94,173.68,0,188.83,40.51,61.97,62.51,11.53,34.94,10.73,58.1763458502459,9323,675,69.46,17594.86,2.66,73.44,2.04,10.61,7.4,2.36,31.8099093979857,0.54,8.7122336,45.8459052
"Anno_2015","GAZZADA SCHIANNO",34.49,2.41,14.93,32.82,2.3,83.45,61.18,44.94,10.71,20,40,45.56,47.6,53.1,19.66,6.18,8.45,2.87,3.31,32.43,57.82,28.55,120,2.86,175.85,36.79,57.71,65.76,11.38,36.29,21.52,59.2902609532065,4647,297,72.49,17230.8,3.74,77.22,7.53,11.62,8.17,2.58,27.56,75.32,8.83566,45.7798417
"Anno_2015","GEMONIO",42.57,1.48,19.43,27.26,22.72,63.13,56.98,72.46,7.26,11.11,0,43.54,48.75,38.78,23.73,6.49,11.74,3.78,4.19,36.47,36.31,26.05,150,0,131.31,31.46,55.42,60.01,13.16,24.07,34.78,57.89,2875,243,67.43,14400.65,5.13,71.24,1.39,7.3,9.38,-3.82,29.59,11.13,8.6730412,45.8816445
"Anno_2015","GERENZANO",33.42,6.82,13.36,32.59,7.18,78.16,63.12,37.31,12.7,11.11,0,42.11,47.4,50.89,25.22,5.56,7.87,3.44,3.36,29.56,27.51,25.18,157.69,0,115.09,27.68,51.72,67.36,10.48,31.78,0,57.4356168538426,10839,995,61.73,16899.41,9.61,63.71,2.4,7.49,11.84,0.28,36.41,0,9.0007454,45.6396733
"Anno_2015","GERMIGNAGA",35.12,38.71,39.05,21.16,4.65,45.5,53.55,19.07,3.36,33.33,25,44.49,44.5,45.33,20.53,7.17,28.22,4.16,4.63,47.56,32.9,27.73,171.43,0,168.45,33.91,54.03,43.85,15.59,22.73,0,60.0658250603688,3880,322,73.46,11121.36,4.71,50.15,1.81,8.01,6.46,7.5,25,0,8.7234702,45.9909936
"Anno_2015","GOLASECCA",40.2,0,14.88,17.22,14.76,19.77,49.63,33.33,7.54,37.5,0,45.18,56,60.88,18.59,6.82,9.33,2.6,3.73,30.3,19.39,25.78,275,0,170.03,32.8,52.08,65.21,11.26,24.52,37.05,54.68,2699,177,68.82,16772.92,2.4,50.41,1.47,8.46,8.83,-13.98,35.16,37.05,8.6556463,45.6969129
"Anno_2015","GORLA MAGGIORE",35.04,0.98,11.92,33.3,2.8,71.15,51.94,5.99,11.59,41.67,40,44.7,47.6,42.83,22.39,6.32,6.03,2.3,3.92,26.36,25.34,31.16,100,0,161.52,35.34,57.21,66.43,10.07,25.83,0,64.66,4989,253,58.65,16461.56,1.27,66.72,1.6,8.59,6.19,-4.39,42.44,0,8.9044202,45.6662109
"Anno_2015","GORLA MINORE",36.34,13.98,12.57,39.79,15.64,79.27,53.44,21.25,10.18,41.67,40,43.56,54.6,44.33,23.24,5.3,7.11,2.41,2.95,29.13,36.45,29.35,142.86,0,139.13,31.13,53.51,66.2,10.26,23.24,0,59.7668217753529,8479,602,65.24,15920.6,1.26,64.22,1.64,10.1,6.11,-4.93,36.43,0,8.8987103,45.6434898
"Anno_2015","GORNATE OLONA",39.28,0,17.06,23.94,3.03,36.63,56.37,7.14,11.17,30,33.33,43.11,42.67,51,24.41,4.59,10.19,3.14,2.8,32.14,31.88,25.5,133.33,0,122.81,28.32,51.38,63.34,9.02,29,44.58,66.0283227692255,2243,93,62.03,16111.22,3.67,69.52,2.67,10.7,8.02,1.78,37.5,765.49,8.8599223,45.7395732
"Anno_2015","GRANTOLA",39.78,5.19,37.53,15.62,357.64,25.91,45.83,26.04,1.81,37.5,25,42.19,54,43.75,24.01,4.16,30.06,4.54,2.46,46.54,21.61,21.73,100,0,120.97,26.13,47.74,43.84,13.04,17.74,0,66.3357588402038,1275,116,78.74,9284.59,0.56,38.48,2.36,7.07,7.85,1.57,39.39,0,8.772679,45.9484852
"Anno_2015","INARZO",32.38,0,13.85,13.1,42.36,27.94,61.55,39.09,11.54,22.22,33.33,43.31,38.67,50.89,24.07,4.86,8.56,2.31,2.78,31.17,14.84,12.05,108.658535315818,0,119.75,25.2,46.25,66.51,11.63,30.95,0,63.880419513109,1066,48,73.73,16041.75,1.61,58.41,0,5.56,9.27,-26.89,27.78,0,8.735095,45.7841576
"Anno_2015","INDUNO OLONA",35.12,7.89,22.26,19.02,1.12,49.73,59.77,55.35,9.02,56.25,33.33,44.82,48.67,47.75,21.35,7.06,12.56,3.48,3.74,35.27,29.8,29.43,143.75,9.38,163.38,35.39,57.05,57.41,12.3,30.02,0,57.0548642736047,10329,625,67.46,15598.65,2.79,55.7,3.09,9.38,8.9,-1.93,25.32,0,8.44,45.55
"Anno_2015","ISPRA",38.32,0,23.76,15.66,12.13,21.56,63.25,37.32,5.98,58.33,40,45.45,44.8,49.58,21.52,6.11,20.3,3.1,3.31,33.18,29.28,31.39,150,0,165.03,37.22,59.77,60.87,16.36,32.55,0,61.4273739228596,5345,719,70.64,14353.79,2.26,59.47,0.75,12.53,7.29,4.49,22.46,0,8.6120782,45.8139584
"Anno_2015","JERAGO CON ORAGO",34.27,7.66,12.63,37.27,15.05,89.82,55.99,51.17,11.58,66.67,20,43.85,52.6,48,23.59,6.15,6.24,2.22,3.69,25.44,30.41,26.76,187.5,0,145.35,32.21,54.38,67.54,8.59,32.95,19.33,56.844616374173,5173,287,72.75,16760.94,1.65,62.82,1.54,8.45,9.22,-13.26,47.56,9.67,8.798483,45.706165
"Anno_2015","LAVENA PONTE TRESA",35.52,5.14,57.85,23.77,3.55,88.92,47.6,9.09,1.79,40,20,43.72,47.8,48,21.03,5.53,50.58,4.02,2.94,58.64,38.47,52.22,170,0,149.36,31.97,53.38,27.95,13.62,16.49,0,58.0111946292275,5681,481,58.89,7408.49,1.73,64,3.54,7.6,8.84,7.43,24.42,0,8.8725744,45.9564617
"Anno_2015","LAVENO",39.77,27.44,22.9,13.64,4.56,29.67,57.69,35.44,7.41,41.67,40,48.89,62,48.67,17.12,8.69,12.91,2.05,5.09,33.79,29.69,38.07,116.67,0,249.37,49.16,68.87,59.37,13.24,29.6,11.35,55.5,8813,757,65.03,16076.72,1.42,72.82,1.35,18.06,6.21,1.92,26.67,41.61,8.6133511,45.9131543
"Anno_2015","LEGGIUNO",36.87,10.63,19.93,11.2,3.9,15.55,59.48,65.55,7.52,37.5,0,44.93,53.75,48.62,22.75,6.12,13.31,3.06,3.06,38.02,19.9,24.22,225,0,160.48,35.71,57.97,61.18,13.13,20.93,26.48,63.1919800258846,3776,305,70.31,15081.08,1.39,50.78,1.05,12.89,5.79,-6.05,26.05,5296.61,8.6207601,45.8747686
"Anno_2015","LONATE CEPPINO",35,0,16.32,31.14,27.14,57.06,52.48,33.22,9.77,25,25,42.65,44,49.67,26.52,6.07,9.53,3.95,3.56,32.47,31.09,26.34,157.14,0,119.87,29.56,54.21,63.18,9.62,21.74,0,61.0307627332613,4959,222,71.75,15013.34,0.37,53.13,1.41,6.87,9.9,0.61,39.86,0,8.8798352,45.7086618
"Anno_2015","LONATE POZZOLO",35.91,10.93,13.63,26.79,0.55,34.34,48.05,39.83,8.49,25,50,43.72,46.83,48.81,24.36,5.76,7.2,2.85,3,29.92,39.38,36.91,135.9,2.56,144.67,32.64,55.2,65.96,11.04,17.21,0,58.6737063058946,11903,901,57.32,14834.99,6.23,74.63,3.27,9.64,8.64,-2.85,36.32,0,8.753802,45.5993133
"Anno_2015","LOZZA",27.76,0,17.59,35.61,283.9,46.2,61.91,33.33,11.87,50,25,42.9,51.5,48,25.24,7.59,11.01,2.85,3.98,28.49,29.18,15.48,150,0,130.81,28.88,50.95,66.28,9.56,39.73,0,60.6646689344921,1262,51,73.96,15914.52,0,56.19,6.33,7.12,11.08,-6.33,37.14,0,8.51,45.47
"Anno_2015","LUINO",37.66,4.9,43.86,17.51,3.44,48.94,54.89,37.74,3.31,33.33,33.33,46.07,57.83,50.93,18.31,7.09,31.09,3.69,4.39,49.47,39.38,55.14,144.44,0,196.78,40.53,61.12,40.59,14.93,26.37,6.76,49.83,14786,1212,63.01,11211.34,0.63,63.34,3.04,12.63,8.44,1.01,28.61,2.03,8.7464,46.0018022
"Anno_2015","LUVINATE",32.2,0,21.03,9.77,8.13,25.3,77.94,13.33,20.18,22.22,25,46.59,43.5,47.56,16.39,7.02,10.7,2.68,4.18,32.98,22.17,17.12,200,0,201.25,38.89,58.21,63.38,12.21,42.37,0,67.3618580728399,1309,110,72.11,23901.79,0,75.6,1.53,5.35,4.58,0,23.26,0,8.7715829,45.8386858
"Anno_2015","MACCAGNO CON PINO E VEDDASCA",37.48,7.92421112891688,49.57,4.34,59.28,3.07,59.85,34.65,2.54,30,0,48.69,48.33,46.5,14.43,6.83,35.54,2.58,4.71,53.07,20.35,35.9,100,0,265.44,46.37,63.84,36.59,13.58,27.07,38.94,61.5308631878826,2568,216,61.66,10818.16,0.69,138.31,1.17,16.02,7.03,15.63,32.76,244.67,8.7366493,46.0385285
"Anno_2015","MALGESSO",37.29,0,16.98,20.15,50.23,24.16,48.2,61.49,8.53,11.11,0,43.72,36,38.44,24.06,4.14,11.28,2.63,2.63,24.59,48.14,18.17,150,0,135.05,30.61,53.27,64.21,10.18,24.24,0,61.4069096467207,1309,77,73.77,14479.56,0.16,44.26,4.58,8.39,10.68,-4.58,36.4383064301796,0,8.679602,45.8278037
"Anno_2015","MALNATE",34.37,7.41,27.37,34.01,5.08,100.76,55.84,38.95,5.82,35.71,50,43.84,44.33,48.71,23,6.11,18.1,4.15,3.32,38.6,19.95,33,125.71,0,144.07,33.23,56.3,52.68,12.69,27.58,5.94,56.6062484172901,16847,1279,75.11,13346.04,1.62,50.06,2.07,10.84,9.18,-2.19,28.19,6.84,8.8827431,45.7971315
"Anno_2015","MARCHIROLO",41.48,4.57,53.51,13.9,6.33,35.7,44.11,5.19,2.08,28.57,0,42,49,50.71,24.12,3.3,44.67,4,1.54,59.51,32.52,36.16,185,0,124.02,27.43,49.55,31.32,14.76,16.97,28.93,61.2341232064358,3457,324,53.46,7643.46,0.41,52.03,5.78,7.23,9.54,-3.76,26,0.29,8.8355525,45.9416258
"Anno_2015","MARNATE",33.04,11.86,11.88,45.79,5.33,134.94,57.76,37.74,14.61,41.67,40,43.17,60.6,50.83,24.79,5.19,5.34,2.45,2.8,27.95,27.06,24.73,133.33,0,130.66,30.69,54.18,70.34,9.41,26.27,0,62.8476989908619,7698,379,65.54,17496.91,2.43,78.78,0.78,9.23,8.84,1.95,35.68,0,8.8983105,45.629061
"Anno_2015","MARZIO",41.74,0,36.54,9.47,46.58,11.84,64.32,46.67,2.97,44.44,0,45.85,53.33,47.78,16.34,7.84,26.8,3.92,5.23,47.46,7.1,23.61,130.049316988865,6.66380272841122,246.67,33.04,46.43,49.52,16.67,33.33,0,59.2939656657686,337,19,43.46,11877.01,0,66.17,0,9.02,12.03,24.06,30.77,0,8.856998,45.9351651
"Anno_2015","MASCIAGO PRIMO",43.3,0,38.3,10.39,518.54,6.08,56.1,5.56,5.65,33.33,33.33,43.99,53.33,46,17.6,3.2,26.4,3.2,1.6,52.63,5.19,8.59,100,0,165.62,24.88,39.91,46.32,14.74,23.08,0,65.6665535582709,294,36,75.85,12222.71,0,37.16,3.38,13.51,3.38,-3.38,20,0,8.7825253,45.9217733
"Anno_2015","MERCALLO",36.51,0,14.46,13.71,3.48,22.8,57.04,14.2,8.26,25,75,44.43,37.5,52.25,21.64,6.47,8.08,1.74,3.73,25.74,23.71,26.45,300,0,151.66,35.1,58.24,66.95,9.73,26.97,0,64.5139426185547,1819,84,68.31,16338.01,2.69,62.64,0.54,11.98,7.63,-14.16,38,0,8.6694289,45.7491222
"Anno_2015","MESENZANA",32.95,5,38.28,13.42,290.63,26.42,48.34,5.5,3.06,25,33.33,41.43,37.33,40.5,24.92,4.98,32.32,4.66,2.41,43.64,48.29,30.44,166.67,0,103.94,27.02,53.02,44.58,8.96,9.52,0,65.1998377705265,1485,68,74.72,9922.27,1,77.18,4.03,6.04,7.38,-8.05,27.59,0,8.7574377,45.9477879
"Anno_2015","MONTEGRINO VALTRAVAGLIA",38.59,4.94,43.04,7.53,37.18,6.24,54.95,7.32,2.86,10,50,43.2,68,58.1,21.91,4.32,31.45,4.17,2.68,52.61,13.72,21.64,133.33,0,127.07,29.66,53.01,42.02,11.69,20.78,0,59.6402212156343,1483,75,68.57,10521.59,0,40.21,2.01,12.73,8.04,-7.37,12.9,0,8.7676915,45.9737304
"Anno_2015","MONVALLE",38.79,0,21.48,17.49,6,26.65,58.26,47.22,6.07,33.33,33.33,43.16,50.33,47.22,22.78,5.02,16.71,3.86,2.8,33.6,36.15,22.14,100,0,125.08,30.31,54.54,61.59,12.43,22.73,0,58.9532845561549,1948,147,74.08,14369.98,0.5,55.6,1.52,8.09,8.59,-31.34,41.07,0,8.6343935,45.8552098
"Anno_2015","MORAZZONE",35.26,1.05,15.7,22.45,14.44,45.34,56.27,50.94,10.19,18.18,40,45.24,38.2,41.82,20.63,7.66,8.69,3.03,4.34,28.76,25.66,26.88,200,0,163.14,33.31,53.73,62.84,10.91,28.57,0,59.5408198853545,4259,211,72.61,16205.15,0.71,56.99,1.64,10.32,5.63,2.35,32.58,0,8.831489,45.7650204
"Anno_2015","MORNAGO",35.38,0,11.67,17.4,15.52,27.3,54.54,58.68,13.53,41.67,40,42.89,46.8,47.5,26.29,6.54,7.17,2.95,3.54,29.43,34.92,28.5,100,0,119.56,30.39,55.81,68.69,8.63,21.72,0,69.1987716420668,5029,204,73.57,16336.08,12.74,60.55,1.19,6.35,6.75,-3.57,43.51,0,8.7538274,45.7501813
"Anno_2015","OGGIONA CON SANTO STEFANO",34.39,7,13.24,44.27,3.61,112.56,50.56,28.11,10.92,20,20,44.13,56.4,52.3,22.45,5.89,6.94,2.33,3.03,27.18,34.27,22.03,133.33,0,154.45,31.42,51.76,65.45,10.68,23.85,0,58.7275595203644,4284,286,73.32,15971.64,0.9,67.3,1.4,7.48,9.58,0,38.52,0,8.8152723,45.7047422
"Anno_2015","OLGIATE OLONA",32.45,16.57,13.45,53.87,3.32,145.28,62.56,18.69,14.99,28.57,33.33,44.12,53,49.64,24.08,6.26,7.04,2.09,3.45,26.62,34.67,27.75,147.3,0,138.77,33.38,57.43,67.95,9.67,30.29,0,60.4025809879243,12394,699,62,18358.5,1.67,76.04,5.97,9.35,8.06,0,32.33,0,8.8876103,45.6332679
"Anno_2015","ORIGGIO",28.22,9.79,10.2,38.16,1.79,69.49,62.96,37.43,16.55,54.55,40,43.67,54,40.73,23.52,5.77,4.88,2.51,3.14,24.15,52.47,25.24,151.43,0,138.97,31.41,54.01,71.48,9.34,26.6,0,58.33,7700,266,60.01,18495.01,39.23,60.42,4.55,9.1,9.87,0.13,36.86,0,9.0150839,45.598457
"Anno_2015","ORINO",45.99,0,28.1,8.4,161.08,8.86,59,7.12,6.48,30,0,46.09,48.33,51.5,17.68,7.32,19.95,2.53,4.55,46.36,4.77,9.27,105.003731333141,3.36331502864328,172.97,34.29,54.11,53.82,10.65,32.56,0,68.6472270811817,847,83,76.86,14707.69,0,38.6,0,9.36,7.02,-16.37,30.77,0,8.7259953,45.8806344
"Anno_2015","OSMATE",31.56,0,18.18,12.1,8.65,13.08,69.67,6.15,7.97,30,0,41.31,47,46.5,25.7,5.59,19.55,2.51,2.79,30.59,9.04,13.47,100.721070217711,19.9830710251401,96.48,26.05,53.04,67.09,11.24,32.61,0,62.0888842937342,805,132,66.89,16037.74,2.27,55.9,0,6.21,17.39,-11.18,26.92,0,8.6571785,45.7910744
"Anno_2015","PORTO CERESIO",37.53,0,46.89,14.04,147.31,25.48,52.02,41.84,2.22,16.67,20,45.42,58.6,53.08,17.98,6.41,37.44,2.87,3.83,52.97,37.37,36.33,100,0,166.18,35.76,57.28,37.12,15.41,22.97,34.04,58.6225148341222,2938,257,62.98,9597.23,1.41,42.75,1.01,12.12,5.39,-15.48,25.68,4.08,8.8994799,45.9042858
"Anno_2015","PORTO VALTRAVAGLIA",40.26,5.71,32.57,8.23,20.05,9.16,56.52,13,4.66,55.56,33.33,47.59,56,53.33,17.5,8.2,20.99,3.22,4.42,44.24,26.78,29.81,100,0,229.23,44.71,64.22,50.53,11.59,16,0,59.6018055620586,2368,152,65.52,13548.69,0.82,57.58,1.68,12.61,7.56,-4.62,18.64,0,8.6765251,45.9607866
"Anno_2015","RANCIO VALCUVIA",43.44,0,30.17,11.23,13.11,16.19,45.61,17.73,3.67,40,0,42.95,56.33,50.7,19.75,3.54,20,3.29,2.53,43.75,51.64,22.76,100,0,123.44,25.16,45.54,49.91,12.5,15.25,0,68.5203929066494,902,45,63.73,11522.77,0,71.59,2.2,6.61,13.22,-19.82,22.73,0,8.7726131,45.9148009
"Anno_2015","RANCO",33.17,0,26.28,8.67,50.17,8.58,68.87,24.73,8.61,40,66.67,45.33,44.67,46.4,20.66,7.38,19.67,3.61,4.59,32.12,15.02,20.03,98.3559996288966,0,156.54,36.69,60.12,55.57,13.82,39.13,0,69.59065276071,1314,235,73.78,17786.66,1.69,42.76,0,15.27,6.87,15.27,26.83,0,8.34,45.48
"Anno_2015","SALTRIO",33.86,2.65,53.97,26.12,33.39,34.31,46.32,46.92,2.17,22.22,25,44.64,63.5,55.56,21.02,5.17,44.54,3.8,2.51,56.07,32.6,33.43,100,0,167.36,31.78,50.77,30.24,8.9,23.03,0,60.8696135016151,3027,121,51.86,8049.39,0.56,35.93,0.66,8.9,8.24,-3.96,33.33,0,8.921527,45.8742234
"Anno_2015","SAMARATE",34.79,14.16,14.22,30.18,0.95,68.31,55.26,27.21,9.61,21.43,33.33,45.4,47.5,44.79,22.21,6.56,6.96,2.49,3.71,28.18,35.47,28.52,142.11,5.26,172.05,37.01,58.53,66.23,10.67,22.38,6.23,54.32,16040,1158,68.16,15864.19,45.15,63.68,1.19,10.23,7.86,3.18,35.79,23.69,8.7870324,45.6260364
"Anno_2015","SANGIANO",44.06,0,21.43,24.48,9.87,34.22,48.03,59.38,5.52,22.22,33.33,44.28,53.67,46.22,23.41,6.82,12.56,3.72,5.58,37.44,20.18,14.94,100,0,149.07,32.32,54,58.58,12.5,16.88,0,62.1332138389234,1526,141,64.64,14039.66,11.21,47.93,0.66,5.91,10.51,-0.66,27.91,0,8.6297777,45.8773993
"Anno_2015","SARONNO",35.39,15.71,16.39,57.96,1.04,344.47,71.66,46.89,14.18,31.82,37.5,45.76,46.5,46.82,19.89,7.02,9.02,2.69,4.11,30.24,43.83,43.4,136.36,0,178.54,39.82,62.12,65.72,13.28,41.92,10.15,55.23,39401,4581,69.13,19828.33,7.23,88.05,3.35,10.53,7.89,1.73,29.82,15.99,9.0359607,45.6242491
"Anno_2015","SESTO CALENDE",36.51,13.67,17.6,17.43,1.28,40.7,64.04,44.78,10.47,37.5,33.33,45.34,55.33,52.69,20.03,6.69,11.41,2.63,3.94,31.35,41.98,44.09,118.75,3.12,170.68,37.73,59.83,64.96,12.16,25,9.03,57.1541074039072,11079,1298,65.22,17987.17,10.46,84.41,2.88,9.46,6.67,-0.99,35.32,8.23,8.6365972,45.7307015
"Anno_2015","SOLBIATE ARNO",33.45,13.97,13.35,50.66,30.99,120.27,55.87,49.07,14.02,27.27,40,44.09,49.4,42.64,22.62,7.38,7.21,3.2,4.13,29.39,48.21,32.99,100,0,144.26,31.52,53.36,65.83,11.14,23.6,0,59.5305799426607,4212,307,72.85,17410.16,1.02,78.52,1.42,9.01,8.3,-0.95,37.04,0,8.8165968,45.7207381
"Anno_2015","SOLBIATE OLONA",34.88,0.84,12.07,46.41,1.16,74.82,51.28,48.87,12.68,50,40,44.02,55.4,41.67,22.34,5.2,4.79,2.44,2.53,28.66,38.02,26.63,237.5,0,150,30.5,50.83,65.86,10.17,18.03,0,60.263380040429,5508,216,57.68,16550.3,3.04,57.26,2.89,10.12,6.86,-6.86,44.05,0,8.8829406,45.6551939
"Anno_2015","SOMMA LOMBARDO",38.37,9.18,14.18,27.03,19.95,45.07,54.06,50.43,7.97,42.86,50,44.44,44.5,45.5,21.67,7.26,8.16,2.86,3.73,30.92,52.93,37.47,135.71,2.86,158.39,34.87,56.88,67.21,12.2,21.52,11.25,54.15,17779,1865,50.57,15598.99,2.76,68.18,3.94,10.19,8.28,3.83,32.9,666.52,8.7068019,45.6827443
"Anno_2015","SUMIRAGO",33.92,10.03,14.16,18.4,7.2,33.79,54.16,40.11,15.65,10,25,44.87,59,51,23.27,6.27,7.03,2.65,3.34,28.5,28.13,29.64,157.14,0,157.83,34.4,56.19,65.6,10.06,24.66,16.12,59.2622788937011,6202,319,73.8,17507.15,0.27,59.24,1.13,9.34,7.57,-1.29,31.75,12.9,8.7812638,45.7386487
"Anno_2015","TAINO",35.1,27.06,18.26,17.1,3.03,31.06,63.48,10.16,11.36,27.27,20,44.93,40.8,45.73,21.87,7.64,12.32,3.14,4.81,31.93,17.35,24.55,152.227837734533,0,152.98,36.18,59.84,63.33,14,25.95,0,62.673486499106,3709,401,70.46,17470.05,7.14,60.7,0,11.28,7.25,-3.49,26.49,0,8.37,45.46
"Anno_2015","TERNATE",34.31,0,14.56,36.28,23.38,42.1,56.17,31.49,12.19,11.11,0,44.54,57.67,52.22,20.49,4.94,6.38,1.8,3.05,27.22,35.21,21.66,150,0,158.72,33.05,53.87,69,9.33,29.32,0,59.7789948268707,2555,111,65.63,17562.33,5.49,67.1,0.78,9.81,5.49,9.42,28.57,0,8.42,45.47
"Anno_2015","TRADATE",35.9,8.17,17.18,25.36,4.2,68.91,62.55,27.65,10.77,7.14,33.33,44.53,53.33,49.29,21.94,7.41,8.95,3.04,4.65,31.73,45,41.9,124,0,155.83,34.85,57.21,62.99,11.93,31.03,10.67,58.905618153245,18750,1475,72.56,16959.88,2.91,70.32,1.34,10.38,8.24,8.99,32.55,26.67,8.907067,45.7115434
"Anno_2015","TRAVEDONA",35.7,0,18.32,17.89,3.8,22.4,60.82,44.32,9.09,57.14,40,44.25,49.8,42.57,23.63,5.43,10.81,3.15,2.97,31.03,23.28,24.41,140,0,148.93,35.37,59.12,65.56,11.68,26.87,0,62.1391362336925,4029,243,71.63,16171.43,1.39,50.4,1.24,11.86,8.65,-6.18,30.77,0,8.6689263,45.808482
"Anno_2015","TRONZANO LAGO MAGGIORE",43.93,0,58.02,2.76,233.33,0.81,55.15,8.11,2.22,11.11,0,48.13,57,42.44,13.56,6.78,50.85,4.24,5.08,58.82,28.42,8.82,100,0,268.18,36.88,50.62,27.63,25,11.11,0,62.5293761250396,238,31,52.33,7804.87,0,33.4,4.18,12.53,4.18,-4.18,28.57,0,8.7342613,46.0888028
"Anno_2015","UBOLDO",34.3,13.95,14.04,33.88,1.35,66.13,55.19,62.48,12.63,20,33.33,43.28,38.67,44.8,23.41,5.67,7.24,3.28,3.24,30.87,25.17,32.02,170,0,132.9,28.94,50.72,65.91,11.64,22.68,0,59.5079363708015,10658,885,64.15,16849.31,0.59,60.42,3.77,9.24,9.24,9.14,33.33,0,9.0043619,45.6142231
"Anno_2015","VALGANNA",41.86,5.77,38.8,7.19,100.11,6.44,54.86,33.13,2.98,22.22,33.33,43.94,58,47.22,21.41,5.46,30.03,3.45,3.02,49.38,20.7,21.98,185.71,0,141.96,30.06,51.23,45.03,14.29,25,63.45,60.2147881921381,1576,118,47.55,10485.45,0,47.23,4.41,8.82,8.19,-14.48,27.66,19.04,8.8260516,45.9016399
"Anno_2015","VARANO BORGHI",36.72,0,13.68,23.78,2.52,52.82,58.42,32.81,9.06,37.5,25,45.48,50.25,52,20.29,7.95,6.61,2.14,5.09,32.38,24.81,22.95,100,0,168.66,36.13,57.54,66.92,12.19,20.34,0,59.8116381525986,2461,198,67.46,16894.1,3.41,65.38,0.41,10.96,8.12,1.62,34.57,0,8.7030082,45.7676679
"Anno_2015","VARESE",36.74,13.55,21.54,28.45,4.44,163.86,68.89,27.96,11.52,3.85,10,46.75,43.9,48.73,17.97,7.8,12.33,2.65,4.33,33.5,47.88,58.97,131.44,0,211.64,42.18,62.1,60.46,14.8,39.68,4.95,53.8214813538667,80799,9937,58.99,19001.05,3.18,101.86,4.8,12.22,7.41,4.1,22.98,100.11,8.8250576,45.8205989
"Anno_2015","VEDANO OLONA",36.04,17.9,22.69,27.7,6.34,60.69,60.04,45.29,9.13,27.27,40,45.55,45,45.36,21.64,7.38,12.75,3.16,4.35,35.45,27.73,30.31,150,0,173.07,37.23,58.74,57.37,10.76,31.15,0,58.6815842083545,7360,433,72.14,15006.68,2.98,53.35,2.44,11.4,8.42,1.36,30.56,0,8.887207,45.7771725
"Anno_2015","VENEGONO INFERIORE",36.74,9.89,18.61,31.87,1.83,71.78,59.33,63.78,10.86,70,50,44.68,34.75,43.8,22.25,6.02,9.82,3.01,3.29,30.54,31.38,28.59,100,0,161.47,34.44,55.77,60.92,10.88,27.33,16.21,58.9907560177186,6170,367,61.77,16333.47,0.4,62.38,2.11,9.58,8.61,5.52,34.67,81.04,8.8906933,45.734056
"Anno_2015","VENEGONO SUPERIORE",36,0,21.92,30.31,9.01,62.22,57.68,66.39,9.26,30,40,44.11,61.2,62.9,22.64,6.08,12.42,3.65,3.38,38.82,44.06,28.12,150,0,151.4,33.52,55.66,57.79,11.79,24.09,0,55.455581822067,7293,475,65.07,15633.91,55.07,53.67,1.1,8.1,8.79,1.51,30.84,0,8.9017558,45.7547651
"Anno_2015","VERGIATE",36.99,17.66,12.88,19.37,8.39,33.51,55.43,43.97,11.12,36.36,20,45.67,45,48.82,21.03,6.81,7.18,2.54,3.89,27.02,37.5,35.88,133.33,0,176.53,38.19,59.82,68.09,10.52,23.5,0,56.6792238610724,8814,507,69.38,17053.55,34.65,75.72,3.72,12.3,7.45,-5.98,34.05,0,8.6942453,45.7217289
"Anno_2015","VIGGIÙ",35.4,12.96,47.57,15.3,3.61,21.92,49.83,50.98,2.01,33.33,40,44.94,39.6,47.58,21.63,5.5,37.67,4.42,2.79,52.76,19.39,27.46,100,0,166.91,33.37,53.37,35.57,11.23,22.6,18.9,59.1115431346343,5292,200,62.42,8829.34,0.7,35.66,0.57,17.92,8.68,6.23,32.65,18.9,8.908244,45.8699877
"Anno_2015","VIZZOLA TICINO",38.74,7.14,11,15.32,62.29,7.36,66.25,49.6,12.43,12.5,0,44.55,44.67,41.12,21.21,5.68,7.58,3.79,2.27,20.63,69.94,14.66,171.43,0,154.55,31.4,51.72,74.51,8.99,21.74,0,59.3237362575353,566,18,56.02,19433.72,12.58,68.36,12.27,7.01,3.51,-12.27,42.86,0,8.6829486,45.6261799
